name,nomenclature,gaia_dr3_id,ra_deg,dec_deg,pmra_mas_yr,pmdec_mas_yr,parallax_mas,magnitude_v,color_index,ecl_lon_deg,ecl_lat_deg,arc_vis_deg,lat_limit_deg
Krios,HD 240429,0,357.97928608027,59.71350023765,89.332,-29.319,9.7559,9.699999809265137,0.5799999237060547,32.98899558340897,53.066423708010895,21.639999771118163,30.286499762349997
Kronos,HD 240430,0,358.0385140665,59.70736699702999,88.949,-29.373,9.7353,9.5600004196167,0.5999994277954102,33.019523862036415,53.04206581316705,21.472000503540038,30.292633002970007
Pherkad Minor,11 UMi,0,229.27453943029997,71.82390203802,4.073,9.477,7.926,5.014999866485596,1.36899995803833,141.64716348823592,74.95819218999688,16.017999839782714,18.176097961980005
Ping,eps Lep,0,76.36526836354416,-22.371034487030837,24.049,-74.951,15.5999,3.180000066757202,1.4599997997283936,72.05560849818727,-44.96459813966313,13.816000080108642,67.62896551296916
Bade,mu. Lep,0,78.23292901709,-16.205463499750003,42.803,-16.017,19.1775,3.2899999618530273,-0.1099998950958252,75.39432923644975,-39.049994179277554,13.947999954223633,73.79453650024999
Darlugal,zet Lep,0,86.73892235277415,-14.82195015846389,-14.203,-0.776,44.794,3.5250000953674316,0.1119999885559082,85.98638350799254,-38.21580598822394,14.230000114440918,75.17804984153611
Gaja,tau Tau,0,70.56124685498,22.95690281483,3.181,-17.028,8.231,4.257999897003174,-0.11999988555908203,72.15369882748087,0.7138884529708776,15.10959987640381,67.04309718517
Naga,gam Hya,0,199.73040703832623,-23.171514006915,67.956,-44.299,25.5286,3.0,0.9200000762939453,207.01829475772982,-13.742617097194135,13.6,66.828485993085
Yuyu,iot Cnc,0,131.67425181855,28.759893136039995,-22.07,-43.699,9.4124,4.01800012588501,0.9779996871948242,126.34613338375775,10.426501366174723,14.821600151062011,61.24010686396001
Lumbung,39 Cru,0,190.48570492647,-59.68582067903,-24.464,-4.226,3.8643,4.940000057220459,-0.03000020980834961,220.75114083115605,-49.06876624954022,15.92800006866455,30.31417932097
Tonglingxing,HD  49878,0,105.01682160210918,76.97740862475611,72.948,-13.442,17.0753,4.539999961853027,1.375999927520752,95.67795867048483,53.83427897324682,15.447999954223633,13.022591375243891
Shangwei,HD  42818,0,94.71157297372875,69.31981423597666,1.816,-118.495,18.3472,4.756999969482422,0.013000011444091797,92.3898012921476,45.91961715084742,15.708399963378906,20.680185764023335
Shangcheng,HD  19275,0,47.98445484034,74.39365830223,14.158,-86.811,19.6409,4.834000110626221,0.043999671936035156,72.36645330970534,53.52832046740636,15.800800132751466,15.606341697770006
Shaowei,gam Cam,0,57.58962223085542,71.33226610659722,18.435,-41.956,8.4446,4.604000091552734,0.051000118255615234,74.64561862331217,49.61662538465028,15.524800109863282,18.667733893402783
Kamelos,HD  45866,0,100.12032089396,77.99578274666,13.997,-5.701,4.4952,5.71999979019165,1.499000072479248,93.62459351272304,54.683883396835704,16.86399974822998,12.004217253340002
Custos,VBE Cam,0,57.38032311777,65.52597939514,0.319,-15.593,3.3288,4.480000019073486,1.880000114440918,71.87329486626795,44.12669736424754,15.376000022888183,24.47402060486
Huagai,iot Cas,0,37.26644916209381,67.40247693141559,-26.61,38.21,24.55,0.0,0.0,62.228909608646845,48.98093679413245,10.0,22.597523068584408
Gang,50 Cas,0,30.858785166533742,72.42129411554222,-43.842,22.548,20.8391,3.937999963760376,0.015000104904174805,63.5585718818932,54.391896632013164,14.72559995651245,17.578705884457776
Rangifer,49 Cas,0,31.381458884050005,76.11506012484,-11.813,-20.561,7.7763,5.21999979019165,0.9500002861022949,67.7514563656008,57.242265426427664,16.26399974822998,13.88493987516
Tarandus,2 UMi,0,17.1869943146575,86.25709066820444,80.457,-10.542,10.8034,4.224999904632568,1.2340002059936523,81.44617248478964,65.21021144643157,15.069999885559081,3.742909331795559
Sarvvis,del Per,0,55.73122001957376,47.787496738188054,29.038,-23.365,6.2435,3.009999990463257,-0.11999988555908203,64.80202043341008,27.301706251419496,13.611999988555908,42.212503261811946
Áldu,eps Per,0,59.463497424225004,40.01019978155972,16.845,-23.554,5.3316,2.890000104904175,-0.18000006675720215,65.67781637428368,19.11455060761508,13.468000125885009,49.98980021844028
Cexing,kap Cas,0,8.249966181752502,62.93178142392444,3.126,-1.835,1.0644,4.159999847412109,0.1400003433227539,42.600280600688194,52.280254228337995,14.99199981689453,27.06821857607556
Tiansi,gam Cas,0,14.17721289375,60.71674002472222,25.17,-3.92,5.94,2.390000104904175,-0.10000014305114746,43.931132359089595,48.81490525732187,12.86800012588501,29.28325997527778
Bagu,del Aur,0,89.881743414146,54.2847379628627,85.814,-142.928,23.0557,3.7200000286102295,1.0099999904632568,89.919593621648,30.84549152961398,14.464000034332276,35.7152620371373
Apdu,gam Tri,0,34.32861363899208,33.84719681816611,45.253,-52.685,27.9795,4.0,0.019999980926513672,43.51809885422814,18.948255235316203,14.8,56.15280318183389
Alaybasan,bet Tri,0,32.38594634196055,34.98729706469149,149.16,-39.1,25.71,3.0,0.1400001049041748,42.35257504970994,20.580692198187688,13.6,55.01270293530851
Shengong,HD 153072,0,254.7177802592786,-37.6204928509059,9.09,-38.37,9.1462,6.047999858856201,0.1830000877380371,257.52734790970953,-14.840584840344555,17.25759983062744,52.3795071490941
Apamvatsa,l Vir,0,202.99118605499538,-6.255817660835833,-103.703,-45.392,6.9499,4.690000057220459,1.5999999046325684,203.58842302482054,3.122235703996792,15.628000068664551,83.74418233916417
Blaze Star,VT CrB,0,239.87567594413002,25.92017038415,-4.461,12.016,1.092,10.246999740600586,1.2690000534057617,230.10014285896844,45.274847718786084,22.296399688720705,64.07982961585
Shatabhisha,lam Aqr,0,343.15364185224,-7.57959692371,14.964,32.742,8.936,3.7899999618530273,1.6500000953674316,341.5761372475395,-0.3866347079127514,14.547999954223632,82.42040307629
Junnanmen,phi And,0,17.37552339943203,47.241794288193404,4.05,-12.43,4.55,4.25,-0.07000017166137695,36.42173059458476,36.369602701202496,15.1,42.758205711806596
Dajiangjunbei,phi Per,0,25.915158204820003,50.688731423610555,24.713,-13.938,5.4048,4.059999942779541,-0.039999961853027344,44.593515352203234,36.8508582822858,14.871999931335449,39.311268576389445
Hydor,2 Cet,0,0.9349492958375001,-17.335991442864444,25.363,-8.987,10.5075,4.535999774932861,-0.05299997329711914,353.76733291949364,-16.235265570241953,15.443199729919433,72.66400855713556
Triminus,iot Tri,0,33.09283344086611,30.30306751098826,-65.05,-60.5,11.22,4.952000141143799,0.7890000343322754,41.19946684867814,15.987445005127748,15.942400169372558,59.69693248901174
Deltoton,del Tri,0,34.26345974490126,34.22423205104722,1151.935,-246.605,91.6504,0.0,0.0,43.603334060282315,19.32052701725605,10.0,55.77576794895278
Ramus,102 Her,0,272.1895496947258,20.81455682891472,-2.073,-6.513,2.8036,4.3470001220703125,-0.1700000762939453,272.856864833236,44.2321250344616,15.216400146484375,69.18544317108528
Tusizuo,109 Her,0,275.924540442535,21.769752669179447,195.971,-243.234,26.9636,3.8399999141693115,1.1800000667572021,277.7978355902521,45.04879218300196,14.607999897003173,68.23024733082056
Paradys,alf Aps,0,221.96546289704744,-79.04475355458166,-5.133,-16.299,6.5509,3.7980000972747803,1.4490001201629639,254.42985740706416,-58.23486794339419,14.557600116729736,10.95524644541834
Honores,7 And,0,348.13751463414246,49.40620720203916,89.939,95.704,40.294,4.519999980926514,0.28999996185302734,15.727720162343946,48.5807284143451,15.423999977111816,40.59379279796084
Alfarasalkamil,omi And,0,345.4802708143367,42.32601551823333,18.841,-6.589,9.3051,3.619999885559082,-0.08999991416931152,7.779464494782043,43.75027070715352,14.343999862670898,47.67398448176667
Kaffalmusalsala,kap And,0,355.10211557957956,44.33393296378723,79.998,-19.011,19.4064,4.139999866485596,-0.07999992370605469,17.29851867349904,41.71799435453849,14.967999839782713,45.66606703621277
Rasalnaqa,iot And,0,354.53416793938504,43.26807305495556,27.163,-1.246,6.4313,4.289999961853027,-0.1100001335144043,16.084742394558017,41.029160927199634,15.147999954223632,46.73192694504444
Udkadua,lam And,0,354.39101158367913,46.45815131141917,159.606,-421.822,38.5736,3.819999933242798,1.0200002193450928,18.286923241387058,43.77587760278575,14.583999919891358,43.54184868858083
Kui,eta And,0,14.301667830110834,23.417650023123606,-43.008,-45.254,12.5624,4.420000076293945,0.940000057220459,22.376015239539328,15.93027286765401,15.304000091552734,66.5823499768764
Heng,nu. Cen,0,207.37615211559708,-41.68770852979139,-26.137,-21.226,8.0476,3.385999917984009,-0.1979999542236328,221.15423850794653,-28.268001624282842,14.06319990158081,48.31229147020861
Shimu,zet And,0,11.834690495196249,24.267178550475833,-101.068,-80.276,18.0083,4.059999942779541,1.119999885559082,20.57992575048518,17.620259361885683,14.871999931335449,65.73282144952417
Kulou,iot Cen,0,200.14922006503957,-36.712304581225,-339.615,-82.181,56.0571,2.7300000190734863,0.029999971389770508,213.1288251899198,-26.016250233711876,13.276000022888184,53.287695418775
Quadrans,i Boo,0,225.94706519512025,47.65406187958964,-445.84,19.86,79.95,0.0,0.0,197.77765732710532,60.53708712028467,10.0,42.34593812041036
Hoerikwaggo,alf Men,0,92.56030242653,-74.75304398106,121.596,-212.411,97.9158,5.068999767303467,0.7290000915527344,265.29505485701657,-81.76579575822264,16.08279972076416,15.246956018939997
Safina,c02 Aqr,0,347.36165018724955,-21.172415205008054,53.452,30.201,12.671,3.640000104904175,1.2299997806549072,340.0177551944738,-14.490230192399661,14.36800012588501,68.82758479499195
Xami,alf Cir,0,220.62675271705453,-64.97513301263639,-193.169,-234.982,60.993,3.190000057220459,0.24000000953674316,242.3626528090079,-46.20256091671022,13.82800006866455,25.02486698736361
Zhou,bet Ser,0,236.54689658602248,15.421819296846387,65.958,-47.791,21.5924,3.6700000762939453,0.059999942779541016,229.94846763852536,34.32666046574447,14.404000091552735,74.5781807031536
Solitaire,E Hya,0,222.57211788284,-27.960361231049998,-238.58,-62.451,10.8024,4.409999847412109,1.4000000953674316,228.48165526052648,-11.097544124960434,15.291999816894531,62.03963876895
Garnet Star,mu. Cep,0,325.8769148160595,58.78004609373167,3.439,-4.108,0.119,4.079999923706055,2.3499999046325684,9.70707842119532,64.19435674602205,14.895999908447266,31.21995390626833
Lang-Exster,alf Tuc,0,334.62546848872375,-60.259629544748336,-77.0,-32.823,17.7324,2.819999933242798,1.3599998950958252,309.67138352966265,-45.40381828793295,13.383999919891357,29.740370455251664
Rhombus,alf Ret,0,63.60612501835416,-62.47380348899389,45.069,42.948,20.3431,3.359999895095825,0.9100000858306885,7.506110176214272,-78.04043015864572,14.031999874114991,27.526196511006113
Tengshe,VV424 Lac,0,344.10832662542,49.73354408009,-0.649,-2.768,1.4018,4.940000057220459,1.7699999809265137,12.79228455314288,50.397099139099666,15.92800006866455,40.26645591991
Uridim,alf Lup,0,220.4823157775,-47.38819874611111,-20.94,-23.67,7.02,2.2860000133514404,-0.16000008583068848,233.5037714972995,-30.02587044046084,12.743200016021728,42.61180125388889
Stellio,alf Lac,0,337.8229225889383,50.28249164252277,137.243,17.54,31.4943,3.7699999809265137,0.009999990463256836,8.143185513779056,53.29053267419503,14.523999977111817,39.71750835747723
Pipit,nu. Pup,0,99.44030260969878,-43.195935686955835,-0.537,-3.859,8.8194,3.1700000762939453,-0.1100001335144043,107.1479285296027,-66.07417789075687,13.804000091552734,46.804064313044165
Bake-eo,gam Oph,0,266.9731691245113,2.7072791218991665,-23.936,-74.462,33.6174,3.75,0.04999995231628418,266.6325352187522,26.11118368575873,14.5,87.29272087810084
Leepwal,zet Cen,0,208.88494019857197,-47.28837451101241,-57.37,-44.55,8.54,2.549999952316284,-0.2200000286102295,224.9506055289229,-32.94336151004893,13.059999942779541,42.71162548898759
Shaomin,rho Leo,0,158.20279329541543,9.306584816652224,-6.35,-3.3,1.5913,3.869999885559082,-0.14999985694885254,156.38891970199722,0.14973191661136823,14.6439998626709,80.69341518334778
Yunü,31 Leo,0,151.9761254861525,9.997506874934166,-82.021,-64.844,11.0209,4.380000114440918,1.440000057220459,150.41386971078947,-1.419569909529862,15.256000137329101,80.00249312506584
Antinous,tet Aql,0,302.82619454879625,-0.8214635937475,35.582,4.596,14.2687,3.2200000286102295,-0.06999993324279785,304.9135097128855,18.72773212759304,13.864000034332275,89.1785364062525
Phyllon Kissinou,23 Com,0,188.71280340925497,22.62920599761361,-58.83,22.771,9.1148,4.7729997634887695,0.0,178.44491363833276,24.118984538826837,15.727599716186523,67.37079400238639
Tianfu,tau Aql,0,301.0346453325,7.277964387570001,14.201,12.049,6.0972,5.507999897003174,1.0560002326965332,305.0344632025833,27.021249845796838,16.60959987640381,82.72203561243
Aiolos,HD  95086,0,164.26258988328,-68.66734700448,-41.128,12.861,11.5659,7.360000133514404,0.23999977111816406,218.64783011733343,-63.36338957329701,18.832000160217284,21.332652995519993
Añañuca,CD-45  5378,0,146.12431987074373,-45.776507677690276,-462.621,-582.668,106.1727,9.979000091552734,1.3929996490478516,172.94911656747684,-54.30452147951189,21.97480010986328,44.223492322309724
Bats??,L  119-213,0,340.4921549214071,-69.16897798384721,334.419,-726.986,67.2123,15.260000228881836,2.039999008178711,304.88705737599923,-54.12256747501897,28.312000274658203,20.831022016152787
Danfeng,CD-60  8051,0,350.0313521431045,-60.06517906890805,-319.924,-127.782,39.7113,11.020000457763672,1.4299993515014648,319.2179049408161,-49.52794299422767,23.224000549316408,29.93482093109195
Dilmun,CD-38  3220,0,107.60025190244,-39.09738090290999,-3.735,25.663,3.7996,10.510000228881836,0.48999977111816406,118.74366048428348,-60.79217251919292,22.6120002746582,50.90261909709001
Filetdor,BD-20  2976,0,144.87535880005,-20.982467018490002,-55.101,11.152,8.7523,9.350000381469727,0.5899991989135742,155.35008363191602,-32.8350223695418,21.22000045776367,69.01753298151
Gar,Wolf  437,0,191.98593570549582,9.751398796318611,-1008.267,-460.034,123.7756,11.395000457763672,1.5629997253417969,187.11922366023114,13.69838030335802,23.674000549316403,80.24860120368139
Gnomon,WASP-43,0,154.90837038061,-9.80627938926,-41.992,-38.004,11.474,12.489999771118164,1.2919998168945312,160.52134087624256,-18.813140221807263,24.987999725341794,80.19372061074
Guahayona,HAT-P-26,0,213.1563879597129,4.060032380532777,37.735,-142.816,6.9985,11.760000228881836,0.5699996948242188,209.49516309844827,16.377690105159434,24.1120002746582,85.93996761946723
Kaewkosin,LP  424-4,0,119.77433139863999,15.391454462500002,-185.706,-56.994,34.0172,0.0,0.0,118.73104599107705,-5.127458034848862,10.0,74.60854553749999
Komondor,HAT-P-12,0,209.38944530266625,43.49350041909417,-134.793,-44.229,7.0448,12.765999794006348,1.0850000381469727,184.77990151859012,50.63222710389522,25.319199752807616,46.50649958090583
Kosjenka,CD-38  2551,0,94.33645207478,-38.3232650174,-17.469,-27.292,3.4609,11.149999618530273,0.5900001525878906,97.1773554456073,-61.65454623607119,23.379999542236327,51.6767349826
Maru,L   97-3,0,121.72397357039459,-66.30463918751889,335.519,-288.994,51.997,13.699999809265137,0.06000041961669922,193.470981687118,-77.4498275900616,26.439999771118163,23.695360812481113
Matza,HD 116434,0,201.15040723345996,-51.5044568644,-33.921,-18.917,9.3031,6.980000019073486,0.09999990463256836,221.70852096935758,-38.95691637856591,18.376000022888185,38.4955431356
Noquisi,Ross  905,0,175.54622222957414,26.70656966188278,895.088,-813.55,102.3014,10.61299991607666,1.447000503540039,164.77369951955367,22.627731161717563,22.73559989929199,63.29343033811722
Orkaria,G 139-21,0,258.82889160451873,4.963907392315556,580.202,-749.713,68.2986,14.710000038146973,0.0,257.3832114076028,27.91522979551,27.652000045776365,85.03609260768444
Uúba,CD-38 15670,0,358.66753046522996,-37.62792344903,247.634,-69.752,12.3381,9.760000228881836,0.7899999618530273,341.8372927918526,-33.56108283433538,21.7120002746582,52.37207655097
Wattle,WASP-19,0,148.41698568691,-45.65918255211,-35.457,17.378,3.7516,12.3100004196167,0.7399997711181641,175.07013813318432,-53.30090050021896,24.77200050354004,44.34081744789
Wouri,BD-05  5432,0,315.02582008947,-5.09445415116,33.778,-93.581,19.8858,9.869999885559082,1.0600004196166992,315.9675579029102,11.45293520511753,21.8439998626709,84.90554584884
Zembra,HATS-72,0,339.02632897779,-16.99994113794,-108.585,-84.437,7.888,12.468999862670898,1.1029996871948242,334.2684410312714,-7.590170799474599,24.962799835205075,73.00005886206
Rana,del Eri,0,55.81208557481292,-9.763391932194168,-93.634,744.36,110.0254,3.5399999618530273,0.9200000762939453,50.86206255675982,-28.67636130010677,14.247999954223634,80.23660806780583
Mazaalai,HAT-P-21,0,171.27494133064,41.02796248256,-1.142,13.523,3.519,11.460000038146973,1.1000003814697266,153.8498499480762,33.83067507550414,23.752000045776366,48.97203751744
Absolutno,XO-5,0,116.716506151,39.09457245971,-21.509,-23.91,3.6517,12.100000381469727,0.0,111.47572683956473,17.62629101578503,24.520000457763672,50.90542754029
Alasia,HD 168746,0,275.45742788659,-11.922681240250002,-22.963,-68.395,23.9884,7.949999809265137,0.7100000381469727,275.4473903482508,11.413460674892939,19.53999977111816,78.07731875975
Amadioha,HD  43197,0,93.39858978173,-29.89726433262001,147.648,16.6,16.0171,8.949999809265137,0.8400001525878906,94.93072734177993,-53.27838924252648,20.739999771118164,60.10273566737999
Amansinaya,CD-23  9677,0,165.39957428216,-23.86066305136,-43.846,-65.637,7.6211,10.279999732971191,0.7700004577636719,176.72748731951336,-27.570166157096757,22.33599967956543,66.13933694864
Anadolu,WASP-52,0,348.49482337452,8.76127008482,-6.942,-44.33,5.7262,12.0,0.8999996185302734,352.9207236861478,12.6011178650379,24.4,81.23872991518
Aniara,HD 102956,0,177.84379540294,57.640733910109994,-12.002,-17.53,8.1691,7.85099983215332,0.9739999771118164,146.4647417119702,50.08479789250088,19.421199798583984,32.359266089890006
Arcalís,HD 131496,0,223.34595125628,18.2354076392,43.739,-33.865,7.547,7.800000190734863,1.0279998779296875,214.44111601875804,33.12195911234996,19.360000228881837,71.7645923608
Atakoraka,WASP-64,0,101.11502112547,-32.858383135939995,-19.265,-1.072,2.7721,0.0,0.0,106.68083580226768,-55.6558454809254,10.0,57.141616864060005
Axólotl,HD 224693,0,359.97429885304,-22.428115627219995,147.026,26.865,10.5796,8.220000267028809,0.6499996185302734,350.6533843041778,-20.47976373317658,19.86400032043457,67.57188437278
Ayeyarwady,HD  18742,0,45.04440180981,-20.80260479376,-19.599,-22.666,6.1858,7.809999942779541,0.929999828338623,35.18462822055364,-36.08477204201338,19.37199993133545,69.19739520624
Baekdu,8 UMi,0,224.20146792993,74.90092254897,13.139,3.578,6.1278,6.835000038146973,0.999000072479248,130.65913978120008,73.34491464923508,18.202000045776366,15.099077451029999
Belel,HD 181342,0,290.26762700977,-23.61956948647,-46.661,-30.244,8.2972,7.550000190734863,1.0159997940063477,288.51124844463413,-1.4733435755275224,19.060000228881833,66.38043051353
Bélénos,HD   8574,0,21.30214886748,28.56669528383,251.27,-157.57,22.3056,0.0,0.0,30.549452926800928,18.168232275310565,10.0,61.43330471617
Berehynia,HAT-P-15,0,66.24806258756,39.46064249415999,14.233,-9.407,5.1856,12.40999984741211,0.6100006103515625,70.96165202333594,17.57827660254062,24.891999816894533,50.53935750584001
Bibh?,HD  86081,0,149.02466025704,-3.8084238539399995,-66.939,16.178,9.6783,8.699999809265137,0.6400003433227539,152.53196386006928,-15.379499227305033,20.439999771118163,86.19157614606
Bosona,HD 206610,0,325.85375043807,-7.40825284889,2.184,1.781,6.7637,8.350000381469727,1.0299997329711914,325.5983438340296,5.918436806045432,20.020000457763672,82.59174715111
Bubup,HD  38283,0,84.25840342492,-73.6993458904,138.794,-108.499,26.2854,6.696000099182129,0.564000129699707,282.60568717966834,-82.60761738056107,18.035200119018555,16.300654109600003
Buna,HD  16175,0,39.25796324194,42.06263014777,-38.864,-41.234,16.667,7.28000020980835,0.6399998664855957,50.50706333055228,25.326838257446372,18.73600025177002,47.93736985223
Ceibo,HD  63454,0,114.84105376505,-78.27897439398,-19.556,-39.926,26.5541,9.359999656677246,1.0600004196166992,248.82790606318227,-76.33209124358703,21.231999588012695,11.721025606020007
Chaophraya,WASP-50,0,43.68805906266,-10.8980625624,3.383,8.913,5.4865,11.4399995803833,0.9900007247924805,37.613808331847174,-26.31227112646405,23.727999496459958,79.1019374376
Chaso?,HAT-P-5,0,274.40546955165,36.62143622263,11.925,5.904,3.2184,11.949999809265137,0.9700002670288086,277.07248581337865,59.95260437318278,24.339999771118165,53.37856377737
Chechia,HD 192699,0,304.02501573383,4.58079443767,-40.884,-51.962,13.7264,6.446000099182129,0.8680000305175781,307.5263172186829,23.69678233612459,17.735200119018554,85.41920556233
Citadelle,HD   1502,0,4.821108315189999,14.05475644782,74.472,-17.069,5.2018,8.350000381469727,0.9399995803833008,10.055055027906874,10.974922669688178,20.020000457763672,75.94524355218
Citalá,HD  52265,0,105.07514879809001,-5.367161369199999,-116.513,80.633,33.425,6.2820000648498535,0.5629997253417969,107.04087548269698,-27.919003706008574,17.538400077819823,84.6328386308
Cocibolca,HD   4208,0,11.111044461334165,-26.515682091086944,313.556,149.324,29.3187,7.789999961853027,0.6700000762939453,358.73598407672756,-28.56764669205376,19.34799995422363,63.484317908913056
Dingolay,HD  96063,0,166.18522853281,-2.51321946826,27.824,-17.902,7.1787,8.253999710083008,0.8360004425048828,168.27052011502957,-7.765722816373218,19.90479965209961,87.48678053174
Dìwö,CD-27 10695,0,239.96228812708998,-28.061753560859998,-8.263,-9.427,2.4811,11.59000015258789,0.23999977111816406,243.55288102985327,-7.338584289284026,23.908000183105468,61.93824643914
Diya,CD-30  1019,0,41.040040009760006,-30.16904546173,7.614,-7.673,2.3889,10.960000038146973,0.4940004348754883,26.20272802621275,-43.383731471517166,23.15200004577637,59.83095453827
Dofida,HD 117618,0,203.10648176596996,-47.27136478166,25.214,-125.428,26.5429,7.170000076293945,0.5999999046325684,220.68422043760236,-34.61360404880979,18.604000091552734,42.72863521834
Dombay,HAT-P-3,0,206.09414056238998,48.028668259339995,-19.619,-23.973,7.4159,11.859999656677246,0.6700000762939453,177.5345084066306,53.047673373940576,24.231999588012695,41.971331740660005
Ebla,HD 218566,0,347.29469579293624,-2.2607451854897223,631.54,-97.397,34.6958,9.208000183105469,0.4329996109008789,347.43144249922915,2.9362886919642643,21.049600219726564,87.73925481451028
Emiw,HD   7199,0,17.696754249910004,-66.18816340323,110.671,-123.406,27.6929,8.029999732971191,0.8600006103515625,326.83935334002274,-62.64799141911619,19.63599967956543,23.811836596769993
Felixvarela,BD-17    63,0,7.142941102742914,-16.226343734481386,-354.939,-227.995,28.9723,9.720000267028809,1.0500001907348633,359.90306043081597,-17.68993931820759,21.664000320434567,73.77365626551861
Flegetonte,HD 102195,0,176.42622028179,2.8214789279,-188.815,-113.269,34.0634,0.0,0.0,175.60011542104772,1.1687679807174696,10.0,87.1785210721
Formosa,HD 100655,0,173.76563835313,20.44154526659,-59.897,-0.996,7.2345,6.438000202178955,1.0299997329711914,165.99775693321152,16.25754437604825,17.725600242614746,69.55845473341
Franz,BD+38  2917,0,260.11615900195,38.242196940259994,2.35,-6.679,4.4473,9.989999771118164,0.4200000762939453,253.7881153353431,61.12639936432567,21.987999725341794,51.757803059740006
Funi,HD 109246,0,188.02994806453998,74.48954668807,-171.665,-48.488,14.7174,0.0,0.0,127.18680140093716,64.01752025071279,10.0,15.510453311929993
Gakyid,HD  73534,0,129.81584645911,12.96037412986,-114.147,-93.787,11.9576,8.239999771118164,0.9700002670288086,128.80463317551778,-5.277607063534811,19.887999725341796,77.03962587014
Gloas,BD+34  1976,0,140.10297724525,33.88241556661,-2.275,-20.072,4.331,10.420000076293945,0.7899999618530273,131.88191380566738,17.438148361283922,22.504000091552733,56.11758443339
Gumala,HD 179949,0,288.88845862292,-24.179353180020005,118.567,-102.364,36.3115,6.236999988555908,0.5349998474121094,287.1863970047773,-1.8599867321099808,17.48439998626709,65.82064681998
Hoggar,HD  28678,0,67.85605820308,4.57529470987,1.403,-10.49,5.3678,8.4399995803833,0.9900007247924805,66.85144999171467,-17.102141855132253,20.12799949645996,85.42470529013
Horna,HAT-P-38,0,35.3832514739,32.24613703865,47.671,-21.594,3.9747,12.510000228881836,0.8299999237060547,43.81320480319224,17.141033943304425,25.012000274658202,57.75386296135
Hunahpú,HD  98219,0,169.44813776586,-23.975415818189997,-130.715,-16.761,8.8365,8.029999732971191,0.9619998931884766,180.51769367391594,-26.06382675514543,19.63599967956543,66.02458418181
Hunor,HD 147506,0,245.15149002655,41.04808521458,-10.078,-29.057,7.7811,8.6899995803833,0.46000003814697266,229.16181595268043,61.011634525568056,20.42799949645996,48.95191478542
Illyrian,HD  82886,0,143.93826709627,34.78074201499,16.321,-35.251,7.8954,7.630000114440918,0.8629999160766602,134.71920117168924,19.3322726401172,19.1560001373291,55.21925798501
Inquill,HD 156411,0,259.96416967456,-48.54932222166,-33.443,-211.177,17.9656,6.670000076293945,0.619999885559082,262.6652579281237,-25.36525049372672,18.004000091552733,41.45067777834
Intan,HD  20868,0,50.17789043810417,-33.730103762691115,292.619,96.116,20.9561,9.930000305175781,1.1399993896484375,34.43520340246008,-49.77725346793769,21.916000366210938,56.269896237308885
Irena,HD 146389,0,243.95985553354998,10.032578960710001,-31.135,-39.167,7.3373,9.390000343322754,0.4759998321533203,239.78991056430624,30.781476164791723,21.268000411987302,79.96742103929
Itonda,HD 208487,0,329.33269869244,-37.76362373571,101.032,-118.842,22.2688,7.46999979019165,0.5500006675720215,317.94008659663433,-23.670721626125054,18.96399974822998,52.23637626429
Jishui,omi Gem,0,114.79139442639,34.58430633086,-37.975,-105.132,19.3338,4.900000095367432,0.40000009536743164,110.74297642427832,12.913164780057725,15.880000114440918,55.41569366914
Kalausi,HD  83443,0,144.29928133377,-43.27220382619999,21.805,-120.094,24.4794,8.239999771118164,0.7899999618530273,168.7918061706557,-52.931202958693035,19.887999725341796,46.72779617380001
Kamuy,HD 145457,0,242.51631001403,26.742748116700003,-18.354,36.856,7.3867,6.565000057220459,1.0450000762939453,233.04842736959216,46.71834742032241,17.87800006866455,63.2572518833
Karaka,HD 137388,0,233.91634009247002,-80.2045938497,-49.722,41.094,24.616,8.699999809265137,0.8900003433227539,259.05458695566966,-58.148141807527324,20.439999771118163,9.795406150299996
Kaveh,HD 175541,0,283.92035063036,4.265323626679998,-6.842,-90.413,7.647,8.0,0.8999996185302734,285.6131903285532,26.95324472777242,19.6,85.73467637332
Koeia,CD-23  1056,0,41.6786955289875,-23.086611775763327,294.717,140.966,42.6929,10.237000465393066,1.4139995574951172,30.532829310814655,-37.09114773830337,22.28440055847168,66.91338822423667
Koit,XO-4,0,110.38816768115,58.26808598149002,-17.008,5.463,3.7812,10.8100004196167,0.3399991989135742,103.04788788459442,35.74878534252627,22.972000503540038,31.731914018509983
Lerna,HAT-P-42,0,135.34437158111,6.097226074879999,-3.064,-33.269,2.4159,12.170000076293945,0.6599998474121094,135.9833102232157,-10.401355501891091,24.604000091552734,83.90277392512
Liesma,HD 118203,0,203.51058082852998,53.728527225659995,-85.849,-78.888,10.8643,8.0600004196167,0.6899995803833008,169.1307951048273,56.46748320333773,19.67200050354004,36.271472774340005
Lionrock,HD 212771,0,336.76280024427,-17.26365667356,-85.892,-104.042,8.9648,7.599999904632568,0.8799996376037598,332.14494480807724,-7.031342215180037,19.119999885559082,72.73634332644
Lucilinburhuc,HD  45350,0,97.19046282170001,38.96296292723,-42.748,-53.736,21.291,7.880000114440918,0.7399997711181641,95.80141356244133,15.66837815496462,19.4560001373291,51.03703707277
Lusitânia,HD  45652,0,97.30496665508,10.93389052875,206.208,-62.55,28.6477,0.0,0.0,97.34160569417085,-12.319415525296003,10.0,79.06610947125
Macondo,HD  93083,0,161.08714590704,-33.57702441616,-92.635,-152.119,35.1056,8.329999923706055,0.9400005340576172,177.98214559720688,-37.94019479648749,19.995999908447267,56.42297558384
Mago,HD  32518,0,77.40300152605,69.6394041056,61.031,-62.382,8.2192,6.420000076293945,1.1100001335144043,83.67391653837717,46.47660256286325,17.704000091552736,20.360595894400007
Mahsati,HD 152581,0,253.43159429550997,11.973747076080002,11.545,-14.941,6.08,8.350000381469727,0.9010000228881836,250.2681680051937,34.28502399232524,20.020000457763672,78.02625292392
Malmok,WASP-39,0,217.32672987069,-3.4445012445499996,-19.041,0.437,4.6435,12.09000015258789,0.8400001525878906,216.11896649932544,10.69822777378736,24.508000183105466,86.55549875545
Márohu,WASP-6,0,348.15723678442,-22.67396494584,-23.264,-37.143,5.0073,11.90999984741211,0.9899997711181641,340.0905079721515,-16.161877553459195,24.29199981689453,67.32603505416
Moldoveanu,BD+28  2507,0,240.54935930108,28.169561167069997,-17.349,14.78,6.1489,11.25,0.630000114440918,229.99792116582347,47.601806260040334,23.5,61.83043883293
Mönch,HD 130322,0,221.88635928641,-0.2814743921,-130.476,-140.246,31.3356,8.039999961853027,0.7799997329711914,219.53764029601606,15.133410597353881,19.647999954223632,89.7185256079
Montuno,CD-30  1812,0,66.37090274554,-30.600447425379993,-0.222,2.615,4.0708,10.039999961853027,0.4099998474121094,56.48895909584777,-51.326437149682775,22.047999954223634,59.39955257462
Morava,WASP-60,0,356.66656138098,31.15593732252,30.247,-6.005,2.3243,12.180000305175781,0.6799993515014648,10.617054926118504,29.634816608752747,24.616000366210937,58.84406267748
Moriah,HAT-P-23,0,306.12384766371,16.76216986392,13.325,-5.505,2.7358,11.9399995803833,1.1100006103515625,313.4979713634596,34.9073886740429,24.32799949645996,73.23783013607999
Mouhoun,HD  30856,0,72.57442267011,-24.36884271363,18.469,-19.837,7.5965,7.910999774932861,0.9609999656677246,66.69529995797694,-46.40823114163444,19.493199729919432,65.63115728637
Mpingo,BD+00   316,0,29.263349783770003,0.7588541813599999,23.418,-6.844,2.8158,10.5600004196167,0.7899999618530273,27.48051732066464,-10.502290946552217,22.67200050354004,89.24114581864
Muspelheim,HAT-P-29,0,33.13116143934,51.77876770795,-9.972,1.79,3.1358,11.829999923706055,0.4700002670288086,50.240649383303285,35.89411390079938,24.195999908447263,38.22123229205
Naledi,CPD-64   484,0,87.13997218883,-63.98844121723,-15.439,26.151,5.691,10.210000038146973,0.5199995040893555,63.75306986021634,-87.16384368856926,22.252000045776366,26.011558782770003
Násti,HD  68988,0,124.59238693837,61.46072084573,128.266,30.427,16.5598,8.1899995803833,0.6500005722045898,110.9006340831719,40.50795144546106,19.82799949645996,28.539279154269998
Natasha,HD  85390,0,147.51040268266,-49.79026644218,24.523,-60.128,29.8273,8.550000190734863,0.8499994277954102,178.48700428510318,-56.993388684873786,20.260000228881836,40.20973355782
Nenque,HD   6434,0,16.167292790286666,-39.48821783893305,-170.033,-527.946,23.6673,7.710000038146973,0.6099996566772461,355.6951658758226,-41.98399751125106,19.252000045776366,50.51178216106695
Nervia,HD  49674,0,102.87715086215,40.86775669535,34.682,-122.686,23.3216,8.100000381469727,0.7299995422363281,100.20024368866297,17.88336365943579,19.72000045776367,49.13224330465
Nikawiy,HD 136418,0,229.77575871625834,41.73320614890167,-19.906,-181.888,9.5255,0.0,0.0,208.16097391199096,56.86443624813156,10.0,48.26679385109833
Nosaxa,HD  48265,0,100.0071959693,-48.54195646738,26.513,29.76,11.0065,8.029999732971191,0.75,110.97617324665548,-71.25328138286604,19.63599967956543,41.45804353262
Nushagak,HD  17156,0,42.43536293106,71.75323034333,90.848,-33.013,12.9142,8.15999984741211,0.619999885559082,67.98793496553363,51.93468299176042,19.79199981689453,18.246769656669997
Nyamien,CD-31 10766,0,208.92796674067,-32.15961561723,8.723,-22.328,3.4891,10.90999984741211,0.48600006103515625,218.40802146330492,-18.994058115790075,23.09199981689453,57.84038438277
Parumleo,WASP-32,0,3.96169885931,1.2004413613599998,1.951,16.447,3.5706,11.260000228881836,0.8000001907348633,4.112237808780073,-0.4729740028367447,23.512000274658202,88.79955863864
Petra,WASP-80,0,303.16737223575,-2.14421873291,-132.913,-50.683,20.1141,11.939000129699707,0.8710002899169922,304.9458129925952,17.362061255774574,24.326800155639646,87.85578126709
Phoenicia,HD 192263,0,303.49935657939,-0.8668804518800001,-62.73,260.819,50.9432,7.767000198364258,0.9569997787475586,305.5938276807643,18.52897399450906,19.32040023803711,89.13311954812
Pincoya,HD 164604,0,270.77888757924,-28.56065244439,-34.658,-42.253,24.9867,9.829999923706055,1.0500001907348633,270.6868452244393,-5.123230023286293,21.795999908447264,61.43934755561
Pipoltr,1SWASP J175207.01+373246.3,0,268.02924344157,37.5461770494,-24.462,34.772,4.3106,12.402000427246094,0.7119998931884766,266.77965111570876,60.963427860286,24.882400512695312,52.4538229506
Poerava,HD 221287,0,352.83474356753,-58.20973154591999,181.041,-5.234,17.8725,7.809999942779541,0.5000004768371582,322.6859585449814,-48.912390583387456,19.37199993133545,31.790268454080007
Rapeto,HD 153950,0,256.1286278133799,-43.30976834868001,110.654,-140.977,20.658,7.380000114440918,0.5199999809265137,259.27436092000346,-20.385598553113358,18.8560001373291,46.69023165131999
Rosalíadecastro,HD 149143,0,248.21271132306998,2.0848278648899994,-9.24,-86.678,13.6279,7.889999866485596,0.6700005531311035,246.0972149759959,23.734289974430997,19.467999839782713,87.91517213511
Sagarmatha,HD 100777,0,173.96468008249,-4.755695730989999,-11.535,35.586,20.159,8.420000076293945,0.7699995040893555,176.35369135553316,-6.761968258276027,20.104000091552734,85.24430426901
S?maya,HD 205739,0,324.53501671201,-31.73748292884,21.833,-82.314,10.7609,8.539999961853027,0.5500001907348633,316.2987130648029,-16.638972395847947,20.24799995422363,58.262517071160005
Sansuna,HD 351766,0,303.19536065517997,18.10483404778,16.532,-13.118,3.9477,10.399999618530273,0.4100008010864258,310.6473633842341,36.97716211916969,22.479999542236328,71.89516595222
Shama,HD  99109,0,171.07232725009,-1.5290741245500001,-178.689,-159.528,18.178,9.0600004196167,0.8999996185302734,172.40275572457446,-4.944477088342898,20.872000503540036,88.47092587545
Sharjah,LP  804-27,0,243.17408087087998,-18.875503261539997,36.447,-214.025,68.61,11.371999740600586,1.508000373840332,244.70118085158074,2.238698544450589,23.646399688720702,71.12449673846001
Sika,HD 181720,0,290.720770801537,-32.91905252211694,88.036,-415.197,16.6766,7.860000133514404,0.5799994468688965,287.59565035143487,-10.736822435504049,19.432000160217285,57.08094747788306
Solaris,BD+14  4559,0,318.39995903255,14.689384941279995,233.909,-0.36,20.2837,0.0,0.0,325.97530910953105,29.2168745775304,10.0,75.31061505872
Sterrennacht,BD+41  4831,0,354.77420958207,42.46597369275,-20.202,2.996,3.6459,10.470000267028809,0.4099998474121094,15.730765266907863,40.253163010117724,22.56400032043457,47.53402630725
Stribor,HD  75898,0,133.46168849576,33.05681126858,-95.11,-28.503,12.811,8.029999732971191,0.6400003433227539,126.64138294356898,14.979544055717227,19.63599967956543,56.94318873142
Taika,HAT-P-40,0,335.51286486402,45.45736612906,8.966,-5.562,2.0534,11.34000015258789,0.8499994277954102,1.5038984017227357,50.314855373748635,23.608000183105467,44.54263387094
Tangra,WASP-21,0,347.4927226845899,18.39607939522,17.567,18.639,3.9089,11.550000190734863,0.5699996948242188,356.10903232069387,21.794865927076682,23.860000228881837,71.60392060478
Tapecue,HD  63765,0,116.95716608284087,-54.26414469989083,148.628,-278.753,30.7532,8.100000381469727,0.75,149.69457506064276,-72.14127719441551,19.72000045776367,35.73585530010917
Tevel,HAT-P-9,0,110.16856858918001,37.140650785850006,-9.796,-13.029,2.1626,12.34000015258789,0.010000228881835938,106.51965330107744,14.850904927279606,24.80800018310547,52.859349214149994
Timir,HD 148427,0,247.11729666309003,-13.39963623664,-37.413,3.049,14.2059,6.889999866485596,0.9600000381469727,247.52765674104708,8.272299568430366,18.267999839782714,76.60036376336001
Tislit,BD-11  2350,0,126.33784871012999,-11.50098671724,-5.431,-0.496,2.8078,11.079999923706055,0.5699996948242188,131.99819492776143,-29.79659390292415,23.295999908447264,78.49901328276
Tojil,WASP-22,0,52.8180279685,-23.819677944619997,2.012,-26.579,3.1532,11.989999771118164,0.3900003433227539,42.58180065380256,-41.33467003949303,24.387999725341796,66.18032205538
Tuiren,HAT-P-36,0,188.26627548196998,44.91533222905999,-11.622,8.138,3.4055,12.149999618530273,0.8200006484985352,165.02550570421624,43.49549302608896,24.57999954223633,45.08466777094001
Tupã,HD 108147,0,186.44278069417996,-64.02208782971,-182.666,-60.693,25.7587,6.99399995803833,0.5380001068115234,222.77366229874417,-53.63259753235527,18.392799949645998,25.977912170289997
Tupi,HD  23079,0,54.92956666483,-52.91583817001,-192.838,-92.021,29.8633,7.110000133514404,0.5699996948242188,21.354651680189306,-68.16056939768862,18.532000160217287,37.08416182999
Uklun,HD 102117,0,176.21025360052,-58.703710541069995,-63.574,-70.331,25.3531,7.449999809265137,0.75,210.75194269553472,-52.905222914322216,18.939999771118163,31.296289458930005
Uruk,HD 231701,0,293.01733716521,16.47428976183,63.452,15.508,9.2189,8.970000267028809,0.5159997940063477,298.27953626234273,37.68088176547067,20.76400032043457,73.52571023817
Xihe,HD 173416,0,280.90045532057,36.55660633873,20.946,58.198,7.5363,6.0370001792907715,1.055999755859375,287.3311485209325,59.34179154946664,17.244400215148925,53.44339366127
Gudja,kap Ser,0,237.1849050094375,18.141564908046668,-52.407,-88.419,8.5231,4.090000152587891,1.619999885559082,229.77592632752334,37.11062064341923,14.908000183105468,71.85843509195334
Guniibuu,36 Oph,0,258.8374330733334,-26.602821420833333,-465.31,-1140.97,168.54,0.0,0.0,260.01264400845537,-3.5497215503701836,10.0,63.39717857916666
Imai,del Cru,0,183.78632699611498,-58.748924076838335,-36.951,-11.296,7.1681,2.752000093460083,-0.18400001525878906,215.66479070341765,-50.41949938599653,13.3024001121521,31.251075923161665
La Superba,VY CVn,0,191.28260867319,45.44025730789,-2.968,13.063,3.2222,4.869999885559082,2.5399999618530273,167.10948889422713,45.099152336082824,15.843999862670898,44.55974269211
Paikauhale,tau Sco,0,248.97063688749995,-28.2160170875,-9.89,-22.83,6.88,2.809999942779541,-0.25,251.45690767475244,-6.12041604309353,13.371999931335449,61.7839829125
Toliman,alf Cen B,0,219.89609628987276,-60.83752756558407,-3614.39,802.98,742.12,1.3300000429153442,0.8799999952316284,239.4777174527547,-42.598770100017,11.596000051498413,29.162472434415932
Alpherg,eta Psc,0,22.870867450065003,15.345831842497502,28.584,-3.217,8.7335,3.619999885559082,0.9800000190734863,26.81594671739499,5.3776788824523525,14.343999862670898,74.6541681575025
Alruba,HD 161693,0,265.99653701018,53.80170722343,18.401,-17.001,7.0268,5.760000228881836,0.009999752044677734,259.36247608349845,77.09311147893459,16.912000274658205,36.19829277657
Ashlesha,eps Hya,0,131.6938009684597,6.4188015227537685,-228.11,-43.82,25.23,3.380000114440918,0.679999828338623,132.34477443627887,-11.104100749561658,14.0560001373291,83.58119847724623
Azmidi,ksi Pup,0,117.32355646601665,-24.859783879637224,-3.61,-2.579,3.0059,3.299999952316284,1.2599999904632568,126.0416602728239,-44.93944854257817,13.959999942779541,65.14021612036278
Bunda,ksi Aqr,0,324.4379573858483,-7.854201596771944,114.89,-24.434,18.2324,4.690000057220459,0.1700000762939453,324.1185205909157,5.957695301689545,15.628000068664551,82.14579840322806
Elgafar,phi Vir,0,217.05057875906,-2.22795805996,-138.727,-3.338,26.8792,4.840000152587891,0.681999683380127,215.4521327970787,11.760422034573594,15.808000183105468,87.77204194004
Elkurud,tet Col,0,91.88180343427,-37.2529192305,0.391,0.121,4.1731,4.99399995803833,-0.10599994659423828,93.05897843133293,-60.67221822364749,15.992799949645995,52.7470807695
Fawaris,del Cyg,0,296.24365384430797,45.13081463141527,41.87,47.298,21.1474,2.869999885559082,-0.019999980926513672,316.2494618493453,64.41406945012056,13.443999862670898,44.86918536858473
Felis,HD  85951,0,148.71751874799,-19.00933885796,-45.386,-40.456,5.6789,4.940000057220459,1.570000171661377,158.34179928583998,-29.61234053040287,15.92800006866455,70.99066114204
Fumalsamakah,bet Psc,0,345.96922173068,3.8200456395047224,12.219,-9.678,8.0542,4.519999980926514,-0.11999988555908203,348.5853934399898,9.053080109233782,15.423999977111816,86.17995436049527
Heze,zet Vir,0,203.67329732802997,-0.59581641612,-276.903,44.621,43.7467,3.380000114440918,0.11999988555908203,202.13419675480094,8.636574428980913,14.0560001373291,89.40418358388
Kraz,bet Crv,0,188.59681217680622,-23.39676021620222,1.116,-56.704,22.0049,2.640000104904175,0.8799998760223389,197.36792502006818,-18.044623751076905,13.16800012588501,66.60323978379778
Nahn,ksi Cnc,0,137.33975478451,22.04543836685,-3.147,9.159,8.004,5.14900016784668,0.9739999771118164,133.21076005627737,5.423922480466209,16.178800201416017,67.95456163315
Okab,zet Aql,0,286.35253339791666,13.86347728111111,-6.575,-95.909,38.2329,2.990000009536743,0.009999990463256836,289.79600485485133,36.18570820293933,13.588000011444091,76.13652271888888
Piautos,lam Cnc,0,125.13390147397001,24.022311148900002,-20.843,-18.97,5.7362,5.929999828338623,-0.059999942779541016,121.81538645603132,4.379939927603773,17.11599979400635,65.9776888511
Tarf,bet Cnc,0,124.12883745353416,9.185543957090834,-45.679,-49.505,10.1026,3.5199999809265137,1.4800000190734863,124.25731982959213,-10.287586188978503,14.223999977111816,80.81445604290917
Ukdah,iot Hya,0,144.96400613436165,-1.142810731513889,46.27,-62.544,12.9055,3.9100000858306885,1.3199999332427979,147.64181249330514,-14.27720281259368,14.692000102996825,88.85718926848611
Ginan,eps Cru,0,185.3400338906829,-60.40114813057249,-171.223,91.795,14.1999,3.569999933242798,1.4100000858306885,218.2754886046477,-51.21209770680877,14.283999919891357,29.598851869427513
Larawag,eps Sco,0,252.54087838625,-34.29323159305555,-614.85,-255.98,51.19,2.2899999618530273,1.1600000858306885,255.33512120311957,-11.738529166977854,12.747999954223634,55.70676840694445
Wurren,zet Phe,0,17.09616910146708,-55.24576000440916,20.375,31.739,11.208,4.013999938964844,-0.10599994659423828,342.37915441655633,-55.131723987399965,14.816799926757813,34.75423999559084
Achird,eta Cas,0,12.276227476217503,57.81517728880999,1078.609,-551.133,168.8322,3.440000057220459,0.5799999237060547,40.246757375529846,47.00778088380879,14.128000068664551,32.18482271119001
Ainalrami,nu.01 Sgr,0,283.54240867928,-22.74483961587,3.919,-8.092,1.8387,4.84499979019165,1.4060001373291016,282.4716058002663,0.11003929182443482,15.81399974822998,67.25516038413
Aladfar,eta Lyr,0,288.4395350838295,39.14596601124306,-1.476,-1.393,2.9107,4.3979997634887695,-0.1549997329711914,300.05770922516786,60.675302765939605,15.277599716186522,50.85403398875694
Albaldah,pi. Sgr,0,287.440970525,-21.023613981944443,-1.36,-36.45,6.4,2.880000114440918,0.3399999141693115,286.25180848431955,1.4370637298702786,13.456000137329102,68.97638601805556
Aldhanab,gam Gru,0,328.48215125261004,-37.36487221701779,110.445,-17.161,17.808,3.009999990463257,-0.11999988555908203,317.4192755481812,-23.050277563991795,13.611999988555908,52.63512778298221
Aldhibah,zet Dra,0,257.1966155398917,65.71464532697362,-16.55,32.757,7.8274,3.1700000762939453,-0.1100001335144043,183.38072923296403,84.76152261779322,13.804000091552734,24.285354673026376
Aldulfin,eps Del,0,308.30322026626874,11.303266387445278,10.915,-19.606,8.9149,4.03000020980835,-0.13000011444091797,314.06102492473707,29.07314780733586,14.83600025177002,78.69673361255472
Alkaphrah,kap UMa,0,135.90636507404153,47.15652472719766,-36.19,-55.4,9.1,3.549999952316284,0.0,123.93672868144449,28.97950439199681,14.25999994277954,42.84347527280234
Alkarab,ups Peg,0,351.34492863566044,23.40410081022638,191.856,36.183,18.7061,4.400000095367432,0.6100001335144043,1.9754724316844268,24.79489502108983,15.280000114440917,66.59589918977362
Alsephina,del01 Vel,0,131.1759432625,-54.70882101944444,28.8,-104.1,40.49,0.0,0.0,168.94784256818733,-67.19778074053889,10.0,35.29117898055556
Athebyne,eta Dra,0,245.99785970199997,61.51420976085001,-16.394,57.094,35.7163,2.740000009536743,0.9100000858306885,194.48707428486819,78.44100989514148,13.288000011444092,28.485790239149992
Brachium,sig Lib,0,226.0175617057,-25.28196957961,-73.484,-42.632,12.5387,3.2100000381469727,1.6999998092651367,230.6872422238669,-7.644478589051694,13.852000045776368,64.71803042039
Castula,ups02 Cas,0,14.16627144337,59.18105702418999,-92.611,-45.397,16.6465,4.622000217437744,0.9589996337890625,42.591479850131506,47.565541914704625,15.546400260925292,30.81894297581001
Chamukuy,tet02 Tau,0,67.16559004644,15.870874649550002,106.148,-20.294,21.8125,3.4100000858306885,0.18999981880187988,67.96193105972345,-5.8384789924825276,14.092000102996826,74.12912535045
Dalim,alf For,0,48.018874183263755,-28.987621986758608,359.565,619.186,71.4337,3.9800000190734863,0.5300002098083496,34.61229492006796,-44.69084982568015,14.776000022888184,61.01237801324139
Dziban,psi01 Dra A,0,265.48359320893996,72.14886878277,88.254,-271.791,43.95,4.550000190734863,0.42999982833862305,103.80337597519022,84.19332555795353,15.460000228881835,17.851131217230005
Hatysa,iot Ori,0,83.85827580502625,-5.909888523506666,-2.816,-1.693,1.9969,2.7699999809265137,-0.24000000953674316,82.99754872392302,-29.199999020566032,13.323999977111816,84.09011147649333
Iklil,rho Sco,0,239.22115500019038,-29.21407444355972,-17.026,-23.657,7.3218,3.859999895095825,-0.19999980926513672,243.14635167646162,-8.599076248885616,14.631999874114989,60.785925556440276
Khambalia,lam Vir,0,214.77746945512624,-13.371091295024444,-15.841,27.602,18.4246,4.519999980926514,0.1399998664855957,216.95216834742635,0.4906698454833464,15.423999977111816,76.62890870497556
Lilii Borea,39 Ari,0,41.9772586465075,29.247118272015555,150.336,-124.838,19.039,4.510000228881836,1.119999885559082,48.368079539325535,12.481781919224964,15.412000274658203,60.752881727984445
Markeb,kap Vel,0,140.52840670833334,-55.01066713416667,-11.4,11.52,5.7,2.4730000495910645,-0.1490001678466797,178.89200245576123,-63.72170458693151,12.967600059509277,34.98933286583333
Meleph,eps Cnc,0,130.11254206308,19.544812309289995,-36.293,-12.133,5.3836,6.289999961853027,0.1700000762939453,127.39392974495382,1.16059382578712,17.547999954223634,70.45518769071
Meridiana,alf CrA,0,287.3680896456666,-37.90447440014084,84.65,-96.511,27.0884,4.086999893188477,0.05900001525878906,284.13486591096563,-15.31358646003343,14.904399871826172,52.09552559985916
Minchir,sig Hya,0,129.68932270518832,3.3414351882730555,-19.312,-16.031,8.6887,4.429999828338623,1.200000286102295,131.20977002148697,-14.601815588028872,15.315999794006348,86.65856481172695
Miram,eta Per,0,42.67420822277708,55.895494367171665,16.346,-13.518,3.2657,3.7899999618530273,1.690000057220459,58.701814889233674,37.481876844598446,14.547999954223632,34.104505632828335
Misam,kap Per,0,47.37418183354417,44.85745828572973,165.691,-138.559,28.7314,3.809999942779541,0.9800000190734863,57.691354733051405,26.08287967861874,14.571999931335448,45.14254171427027
Nembus,ups Per,0,24.498158433053337,48.62821196304722,62.968,-111.999,18.5489,3.569999933242798,1.2799999713897705,42.439917938515954,35.41494951272126,14.283999919891357,41.37178803695278
Nganurganity,sig CMa,0,105.42978350186792,-27.934830340443888,-5.714,4.89,2.5085,3.4700000286102295,1.7299997806549072,111.55607917923464,-50.225830855904,14.164000034332275,62.06516965955611
Pipirima,mu.02 Sco,0,253.0839388325,-38.017534955277775,-12.114,-22.57,5.6632,3.5420000553131104,-0.19900012016296387,256.2462192519352,-15.382478954489772,14.250400066375732,51.982465044722225
Polaris Australis,sig Oct,0,317.19526487582993,-88.95649953627,26.323,4.721,11.1005,5.420000076293945,0.31999969482421875,271.87079112619426,-65.84021236937932,16.504000091552733,1.0435004637299983
Polis,mu. Sgr,0,273.4408701670833,-21.058831686944444,0.3,-0.48,0.09,3.8499999046325684,0.2200002670288086,273.2134988646044,2.3420732943658797,14.619999885559082,68.94116831305556
Prima Hyadum,gam Tau,0,64.94834968291876,15.627642051424726,116.247,-23.368,21.6645,3.6500000953674316,0.9899997711181641,65.80576788381268,-5.732250774889034,14.380000114440918,74.37235794857527
Salm,tau Peg,0,350.15935928822,23.740355064460005,36.27,-2.505,20.7145,4.579999923706055,0.16499996185302734,1.0547880771507312,25.569279683775754,15.495999908447265,66.25964493554
Secunda Hyadum,del Tau,0,65.73372983164,17.54251383399,106.212,-27.692,20.3092,3.759999990463257,0.9799997806549072,66.87072997033154,-3.9695002290691708,14.511999988555907,72.45748616601
Segin,eps Cas,0,28.5988920257,63.670100066329994,29.587,-18.387,7.0037,3.369999885559082,-0.14999985694885254,54.76368173522723,47.54821832019953,14.043999862670898,26.329899933670006
Tabit,pi.03 Ori,0,72.46004668811875,6.961277950629445,463.954,11.937,124.6198,3.190000057220459,0.440000057220459,71.92471534154426,-15.384166784232365,13.82800006866455,83.03872204937055
Terebellum,ome Sgr,0,298.95984395829544,-26.29935924974028,197.84,46.606,42.7159,4.699999809265137,0.75,295.8507736794573,-5.421797589152168,15.639999771118163,63.70064075025972
Tiaki,bet Gru,0,340.66687612556166,-46.884576444824646,135.16,-4.38,18.43,2.109999895095825,1.6200001239776611,322.32731878417894,-35.43206178052268,12.531999874114991,43.115423555175354
Torcular,omi Psc,0,26.348438396549998,9.15775073342,71.227,53.727,12.5296,4.260000228881836,0.9599995613098145,27.743132520868908,-1.6202202459970452,15.112000274658204,80.84224926658
Xamidimura,mu.01 Sco,0,252.96761814529,-38.04739946400001,-10.451,-18.315,1.8732,2.9800000190734863,-0.16000008583068848,256.15560774834927,-15.423162171516793,13.576000022888184,51.95260053599999
Zubenelhakrabi,gam Lib,0,233.8815753993054,-14.789535531785829,64.631,7.819,20.2593,3.9100000858306885,1.0199997425079346,235.13802967573628,4.38592000502739,14.692000102996825,75.21046446821417
Alsafi,sig Dra,0,293.0899592077504,69.66117661255723,597.384,-1738.286,173.4939,4.679999828338623,0.7800002098083496,30.293867837725823,80.91696850231462,15.615999794006347,20.338823387442773
Alsciaukat,31 Lyn,0,125.70878932057252,43.18813060422277,-21.3,-100.621,8.8828,4.25,1.5500001907348633,117.55954182659991,23.10541041567545,15.1,46.81186939577723
Alshat,nu. Cap,0,305.1658991456237,-12.759080634501943,14.13,-15.123,12.1737,4.760000228881836,-0.04000043869018555,304.4331539796291,6.575971655073345,15.712000274658202,77.24091936549806
Alzirr,ksi Gem,0,101.32235202269875,12.895594959796389,-114.564,-191.671,54.1894,3.359999895095825,0.43000006675720215,101.20920272089099,-10.104201390157707,14.031999874114991,77.10440504020362
Angetenar,tau02 Eri,0,42.759696298533754,-21.00401153253444,-52.886,-21.805,16.793,4.769999980926514,0.9000000953674316,32.63498865097188,-35.51899334280457,15.723999977111816,68.99598846746557
Anser,alf Vul,0,292.176374672262,24.664905852074995,-126.197,-106.865,11.2238,4.449999809265137,1.5,299.5075749877465,45.85832453017999,15.339999771118164,65.335094147925
Beemim,43 Eri,0,66.00919305988,-34.01684951183,67.572,48.489,11.127,3.9600000381469727,1.489999771118164,54.487121976559955,-54.53762401994651,14.752000045776366,55.98315048817
Bharani,41 Ari,0,42.49597183583333,27.26050722722222,66.81,-116.52,19.69,3.5940001010894775,-0.09600019454956055,48.203533226406186,10.449701385466751,14.312800121307372,62.73949277277778
Fang,pi. Sco,0,239.71297182416666,-26.114107945,-11.42,-26.83,5.57,2.9100000858306885,-0.20000004768371582,242.93987761552708,-5.475381395880099,13.492000102996826,63.885892055
Fulu,zet Cas,0,9.242852031185834,53.89691044421194,17.444,-9.523,6.6657,3.6600000858306885,-0.19000005722045898,35.065220478670156,44.71979086870433,14.392000102996825,36.10308955578806
Fuyue,G Sco,0,267.4645037403808,-37.04327637830389,41.717,11.975,24.734,3.2100000381469727,1.1700000762939453,267.9178588261992,-13.622320868099568,13.852000045776368,52.95672362169611
Haedus,eta Aur,0,76.6287255888596,41.23447574166194,29.771,-68.325,14.0208,3.180000066757202,-0.18000006675720215,79.44619156405382,18.28382788952955,13.816000080108642,48.76552425833806
Hassaleh,iot Aur,0,74.24841676022209,33.166093772077225,3.817,-17.786,7.2491,2.690000057220459,1.5299997329711914,76.63945884287988,10.454498297108406,13.228000068664551,56.833906227922775
Jabbah,nu. Sco,0,242.99889864963222,-19.46070447846264,-7.65,-23.71,6.88,4.0,0.05000019073486328,244.6438130146051,1.6332621931900795,14.8,70.53929552153735
Kang,kap Vir,0,213.2239368859575,-10.273703461482222,6.674,138.987,11.5878,4.210000038146973,1.320000171661377,214.49372010129582,2.9129810321223855,15.052000045776367,79.72629653851777
Mahasim,tet Aur,0,89.93029217610834,37.21258462923103,43.63,-73.79,19.7,2.619999885559082,-0.07999992370605469,89.9428413118706,13.773319020140947,13.1439998626709,52.78741537076897
Markab,alf Peg,0,346.19022269142596,15.205267147927536,60.4,-41.3,24.46,2.4800000190734863,-0.039999961853027344,353.4856012392578,19.406028685436368,12.976000022888183,74.79473285207246
Minelauva,del Vir,0,193.9008692670183,3.3974689038383334,-469.714,-53.71,17.4065,3.380000114440918,1.5899996757507324,191.46088765264116,8.613433560819953,14.0560001373291,86.60253109616167
Praecipua,46 LMi,0,163.32787152823542,34.214892133082785,90.625,-278.664,32.921,3.8299999237060547,1.0399999618530273,150.8769065782802,24.931149777916616,14.595999908447265,55.785107866917215
Revati,zet Psc A,0,18.43285834319,7.575359937449999,142.693,-53.051,24.4595,5.190000057220459,0.25999975204467773,19.877544103776973,-0.21341973042027945,16.22800006866455,82.42464006255
Saclateni,zet Aur,0,75.61951434554709,41.07583198882223,12.093,-19.324,1.4244,3.75,1.2199997901916504,78.63338412683949,18.202309746456685,14.5,48.92416801117777
Sceptrum,l Eri,0,69.54509840443708,-14.30402789671278,-79.531,-153.335,28.8769,3.869999885559082,1.0900001525878906,65.25436008224236,-36.00257785253876,14.6439998626709,75.69597210328722
Taiyangshou,chi UMa,0,176.51255861980331,47.77940424229889,-138.297,28.66,16.4382,3.7200000286102295,1.1800000667572021,153.6601186804171,41.54388918859234,14.464000034332276,42.22059575770111
Taiyi,8 Dra,0,193.86895235071998,65.43847420237,-3.658,-30.126,33.9667,5.224999904632568,0.2909998893737793,146.17895545537735,60.93833975733645,16.26999988555908,24.561525797629997
Tianguan,zet Tau,0,84.41118926291666,21.14254411222222,1.78,-20.07,7.33,3.0299999713897705,-0.19000005722045898,84.78463409856225,-2.19561213995932,13.635999965667725,68.85745588777777
Tianyi,7 Dra,0,191.89309745841996,66.79030426272,7.182,-6.333,4.2243,5.422999858856201,1.5789999961853027,142.95554669447012,61.10844728298863,16.50759983062744,23.20969573728
Xuange,lam Boo,0,214.0959100349329,46.08830429435917,-187.698,159.309,32.5885,4.179999828338623,0.08000040054321289,186.96329246270852,54.64816112691731,15.015999794006348,43.91169570564083
Zhang,ups01 Hya,0,147.86947907884206,-14.846628713346947,31.037,-26.862,13.1263,4.110000133514404,0.9200000762939453,155.69119361630388,-26.077310728026546,14.932000160217285,75.15337128665305
Almaaz,eps Aur,0,75.49222653615,43.82331030981,0.883,-3.065,0.9879,2.990000009536743,0.5399999618530273,78.84141624466675,20.944396997480403,13.588000011444091,46.17668969019
Alniyat,sig Sco,0,245.29714880583333,-25.592792076666665,-10.6,-16.28,4.68,2.890000104904175,0.12999987602233887,247.79959732455973,-4.037374212302962,13.468000125885009,64.40720792333333
Alrakis,mu. Dra,0,256.33385013734693,54.47002762156135,-58.16,67.87,36.45,0.0,0.0,234.7625220444191,76.23333230499746,10.0,35.52997237843865
Alterf,lam Leo,0,142.93012390931915,22.967981285818055,-18.45,-36.303,8.7555,4.309999942779541,1.5399999618530273,137.87340874372347,7.888750669417892,15.17199993133545,67.03201871418194
Barnard's Star,NAME Barnard's star,0,269.4520769586187,4.693364966576667,-801.551,10362.394,546.9759,9.51099967956543,1.7290000915527344,269.38075986736834,28.13146663001748,21.413199615478515,85.30663503342333
Cujam,ome Her,0,246.35397780919,14.033267242409998,38.682,-59.551,13.1034,4.579999923706055,-0.009999752044677734,241.575346845217,35.16835706478353,15.495999908447265,75.96673275759
Deneb Algedi,del Cap,0,326.76018433125,-16.12728708527778,261.7,-296.7,84.27,2.8299999237060547,0.28999996185302734,323.542553638593,-2.6016780818504914,13.395999908447266,73.87271291472223
Diadem,alf Com,0,197.49702168569598,17.52945526166217,-433.13,141.24,56.1,4.320000171661377,0.4499998092651367,188.94999464769467,22.978298133398972,15.184000205993652,72.47054473833782
Giausar,lam Dra,0,172.85092364299916,69.33107573011195,-41.24,-18.851,8.6458,3.8499999046325684,1.619999885559082,130.33372309303618,57.241176961953926,14.619999885559082,20.668924269888052
Kaffaljidhma,gam Cet,0,40.825162898112545,3.2358163764959436,-146.1,-146.12,40.97,3.4700000286102295,0.08999991416931152,39.4329147804377,-11.996118354743471,14.164000034332275,86.76418362350405
Marsic,kap Her A,0,242.01885684482002,17.04697752909,-34.067,-6.7,8.2812,4.99399995803833,0.9330000877380371,235.7181204969508,37.215119624681286,15.992799949645995,72.95302247091
Tejat,mu. Gem,0,95.74011192619564,22.513582745904277,56.39,-110.03,14.08,2.869999885559082,1.640000343322754,95.30189082376367,-0.8201152484204822,13.443999862670898,67.48641725409573
Theemin,ups02 Eri,0,68.88765817174708,-30.562342037091394,-49.422,-12.543,15.4501,3.819999933242798,0.9800002574920654,59.88524642229602,-51.81720436301537,14.583999919891358,59.4376579629086
Asellus Australis,del Cnc,0,131.17124658768913,18.154308069054167,-18.435,-227.813,23.8271,3.940000057220459,1.0799999237060547,128.72198988602557,0.077171654035504,14.72800006866455,71.84569193094583
Asellus Borealis,gam Cnc,0,130.82144642293792,21.468498799990275,-105.76,-39.157,18.6431,4.6519999504089355,0.018000125885009766,127.53844572979597,3.1905026776819807,15.582399940490722,68.53150120000973
Gienah,gam Crv,0,183.9515450373768,-17.541930457603193,-158.61,21.86,21.23,2.5799999237060547,-0.1099998950958252,190.72562921792647,-14.500905552996375,13.095999908447265,72.4580695423968
Rigil Kentaurus,alf Cen A,0,219.90205833170774,-60.83399268831004,-3679.25,473.67,742.12,0.009999999776482582,0.7100000288337469,239.47931852146374,-42.59434884013696,10.01199999973178,29.16600731168996
Yed Prior,del Oph,0,243.58641259114916,-3.6943257851008338,-45.34,-144.433,20.4113,2.75,1.5900001525878906,242.30212955610455,17.241188496195974,13.3,86.30567421489917
Arkab Posterior,bet02 Sgr,0,290.80473985061576,-44.79977880009028,93.218,-53.775,23.3612,4.269999980926514,0.33099985122680664,285.8303039088225,-22.49722507726693,15.123999977111815,45.20022119990972
Arkab Prior,bet01 Sgr,0,290.65958004976,-44.45895838469,2.89,-18.125,8.3782,4.010000228881836,-0.10000014305114746,285.7760142147174,-22.144651403771316,14.812000274658203,45.54104161531
Yed Posterior,eps Oph,0,244.58037593556583,-4.692513152746668,83.916,40.763,30.5136,3.2300000190734863,0.9800000190734863,243.51006221995252,16.43967337611884,13.876000022888183,85.30748684725333
Albali,eps Aqr,0,311.9189565534167,-9.495776926900833,33.923,-34.936,13.3619,3.7699999809265137,0.0,311.7231801838826,8.080537832069565,14.523999977111817,80.50422307309917
Alchiba,alf Crv,0,182.10340531836871,-24.728875596671113,96.976,-40.023,66.7696,4.010000228881836,0.31999969482421875,192.2444890110382,-21.74921970045563,14.812000274658203,65.27112440332888
Alkes,alf Crt,0,164.94360481576166,-18.298786220615558,-462.303,128.614,20.3693,4.070000171661377,1.0899996757507324,173.68943765241755,-22.716345401481718,14.884000205993651,71.70121377938445
Ancha,tet Aqr,0,334.20848618584,-7.783288742531944,118.929,-21.928,17.0893,4.159999847412109,0.9900002479553223,333.26347981913347,2.706853395852012,14.99199981689453,82.21671125746806
Ascella,zet Sgr,0,285.6530426563352,-29.88006330096877,10.79,21.11,36.98,2.5899999141693115,0.10000014305114746,283.6384200001158,-7.178881199963006,13.107999897003173,60.11993669903123
Atik,omi Per,0,56.07972403666,32.2882464911,6.091,-9.732,3.0224,3.9100000858306885,0.0,61.1432195263483,12.184383957448631,14.692000102996825,57.7117535089
Azelfafage,pi.01 Cyg,0,325.5235860829083,51.18962768180972,4.934,-3.583,2.2726,4.659999847412109,-0.1099996566772461,358.27649540433424,58.87567542781353,15.591999816894532,38.81037231819028
Azha,eta Eri,0,44.10687184660001,-8.8981434724,78.2,-219.121,24.2178,3.869999885559082,1.119999885559082,38.74996503252665,-24.546715729055347,14.6439998626709,81.1018565276
Baten Kaitos,zet Cet,0,27.86513061761,-10.335031066289998,39.752,-40.956,12.877,3.7200000286102295,1.1400001049041748,21.950096372482825,-20.3345431599668,14.464000034332276,79.66496893371
Beid,omi01 Eri,0,62.96641270133917,-6.837579624323332,10.233,81.858,26.1097,4.026000022888184,0.33099985122680664,59.432716195428235,-27.45339544178184,14.831200027465819,83.16242037567667
Botein,del Ari,0,47.90736069940499,19.726673110293053,153.871,-5.586,19.7731,4.369999885559082,1.0300002098083496,50.85303145358864,1.8239525310571483,15.243999862670897,70.27332688970695
Grumium,ksi Dra,0,268.38220642831584,56.87264192915222,93.698,78.914,29.0603,3.75,1.179999828338623,264.7553770225543,80.28246365554607,14.5,33.12735807084778
Keid,omi02 Eri,0,63.817998412477074,-7.652869660838334,-2240.085,-3421.809,199.608,4.429999828338623,0.820000171661377,60.18321247363071,-28.42229155758954,15.315999794006348,82.34713033916167
Kurhah,ksi Cep,0,330.9477291109317,64.62797577182414,215.46,91.06,33.79,4.289999961853027,0.3400001525878906,24.219969550740625,65.74907616488649,15.147999954223632,25.37202422817586
Maasym,lam Her,0,262.68462425402,26.110645612289996,18.782,16.184,8.2943,4.409999847412109,1.440000057220459,259.90307932270036,49.29384014604951,15.291999816894531,63.88935438771
Marfik,lam Oph,0,247.72842974605487,1.9839224782032374,-30.98,-73.42,18.84,3.9000000953674316,0.039999961853027344,245.59387889599734,23.55590567645507,14.680000114440919,88.01607752179676
Mekbuda,zet Gem,0,106.02721349362085,20.570298465267225,-7.738,-0.943,3.0729,3.7899999618530273,0.7899999618530273,104.99023295151642,-2.03882520915671,14.547999954223632,69.42970153473277
Menkib,ksi Per,0,59.74126012587458,35.79103042103805,0.778,2.621,2.4457,4.059999942779541,0.019999980926513672,64.97245281236403,14.94384811329311,14.871999931335449,54.20896957896195
Merga,h Boo,0,222.32779307616997,46.11620400292,-6.207,-77.913,20.8264,5.756999969482422,0.4660000801086426,195.4419294334509,57.88112802638146,16.908399963378905,43.88379599708
Muphrid,eta Boo,0,208.67116216800866,18.397720717229475,-60.95,-356.29,87.75,2.680000066757202,0.5699999332427979,199.33660011127063,28.07711534844486,13.216000080108643,71.60227928277052
Nusakan,bet CrB,0,231.95730858154164,29.10569295567611,-202.069,92.412,27.9256,3.680000066757202,0.28999996185302734,219.1168831410047,46.0540789513939,14.416000080108642,60.894307044323895
Rasalas,mu. Leo,0,148.190904223595,26.00695118609,-216.266,-55.125,26.0971,3.880000114440918,1.2199997901916504,141.430023675623,12.348868584461998,14.656000137329102,63.99304881391
Rotanev,bet Del,0,309.3872554152033,14.5950887473128,118.09,-48.06,32.33,3.630000114440918,0.440000057220459,316.34133941103573,31.91794564409389,14.3560001373291,75.4049112526872
Sarin,del Her,0,258.7579607430354,24.839206966655976,-21.18,-156.48,43.41,3.130000114440918,0.07999992370605469,254.76351986564345,47.68560836590705,13.756000137329101,65.16079303334402
Sham,alf Sge,0,295.02413054827,18.01389072819,15.076,-20.287,7.6353,4.380000114440918,0.7799997329711914,301.071450031187,38.79226275991844,15.256000137329101,71.98610927181
Situla,kap Aqr,0,339.43908560581417,-4.228054800934445,-69.411,-119.631,14.7149,5.03000020980835,1.1439995765686035,339.4162238656115,4.110343375538879,16.03600025177002,85.77194519906556
Sualocin,alf Del,0,309.90949848153707,15.912160008943609,71.574,-30.655,13.7298,3.799999952316284,-0.059999942779541016,317.38057251249205,33.02241577322371,14.559999942779541,74.0878399910564
Subra,omi Leo,0,145.28763405888583,9.89230789622861,-142.621,-37.338,24.1976,3.5199999809265137,0.49000024795532227,144.2470529938848,-3.757202088423378,14.223999977111816,80.10769210377138
Syrma,iot Vir,0,214.0036178170021,-6.000547078703056,-26.606,-414.866,45.4014,4.079999923706055,0.5199999809265137,213.79717318178731,7.199485028413571,14.895999908447266,83.99945292129695
Tegmine,zet Cnc,0,123.05302654166667,17.647767083333335,27.61,-151.73,39.87,0.0,0.0,121.3425870304586,-2.26748113330936,10.0,72.35223291666667
Tureis,rho Pup,0,121.88603676458334,-24.304324429444446,-82.886,46.93,51.3999,2.809999942779541,0.43000006675720215,131.38889153983865,-43.27010429333977,13.371999931335449,65.69567557055555
Zaniah,eta Vir,0,184.97642665915,-0.66679619811,-54.665,-17.642,13.1692,3.9000000953674316,0.019999980926513672,184.83206161733943,1.3652555330719465,14.680000114440919,89.33320380189
Zibal,zet Eri,0,48.95844035892001,-8.81973238362,-2.8,46.883,27.395,4.800000190734863,0.23000001907348633,43.8278783484271,-25.921749723777694,15.760000228881836,81.18026761638001
Acrab,bet01 Sco,0,241.3592999275,-19.805452782777778,-5.2,-24.04,8.07,2.619999885559082,-0.06999993324279785,243.19002279088568,1.0077573041458725,13.1439998626709,70.19454721722222
Adhara,eps CMa,0,104.65645315148348,-28.972086157360806,3.24,1.33,8.05,1.5,-0.21000003814697266,110.76287104661033,-51.36020261813064,11.8,61.027913842639194
Adhil,ksi And,0,20.58508364821,45.52877673579,31.681,9.024,14.6042,4.868000030517578,1.0830001831054688,37.861823599852094,33.83065245180946,15.841600036621093,44.47122326421
Alfirk,bet Cep,0,322.1649868804167,70.56071518916666,12.54,8.39,4.76,3.2300000190734863,-0.2200000286102295,35.546264431512355,71.1527782067749,13.876000022888183,19.439284810833342
Algedi,alf02 Cap,0,304.5135649821425,-12.544852120195275,61.212,2.412,29.914,3.5799999237060547,0.9300003051757812,303.85858294278916,6.930164437880691,14.295999908447264,77.45514787980473
Alkalurops,mu.01 Boo,0,231.12263111872997,37.37715592268,-149.928,89.573,26.5759,0.0,0.0,213.1778252924762,53.421762893195144,10.0,52.62284407732
Alnasl,gam02 Sgr,0,271.45203374499994,-30.424089849444446,-48.839,-204.86,32.2697,2.990000009536743,1.0099999904632568,271.261435900598,-6.99116831552352,13.588000011444091,59.57591015055556
Alrescha,alf Psc,0,30.511748813375274,2.763761377219602,32.45,0.04,21.66,0.0,0.0,29.3786638111958,-9.060845370202742,10.0,87.2362386227804
Alshain,bet Aql,0,298.8283035123829,6.406764233985,45.944,-480.965,73.5249,3.7100000381469727,0.8499999046325684,302.4236387892289,26.659151346320552,14.452000045776366,83.593235766015
Altais,del Dra,0,288.1387557204383,67.66153865705445,94.599,92.374,33.3499,3.069999933242798,1.000000238418579,17.161600148005395,82.88627841462659,13.683999919891358,22.33846134294555
Alya,tet01 Ser,0,284.05494665111996,4.20360613639,46.474,31.313,24.2696,4.570000171661377,0.1699995994567871,285.75538443648475,26.877413475716082,15.484000205993652,85.79639386361
Asterope,21 Tau,0,56.47698521152,24.55450991618,20.331,-46.022,7.3053,5.760000228881836,-0.04000043869018555,59.73973504080534,4.568121304189438,16.912000274658205,65.44549008382
Atlas,27 Tau,0,57.29059607421416,24.053417133280284,19.079,-46.193,8.1184,3.630000114440918,-0.09000015258789062,60.35591044667539,3.9174864149883706,14.3560001373291,65.94658286671972
Biham,tet Peg,0,332.5499525505046,6.1979215882049985,265.699,10.407,36.7678,3.549999952316284,0.06999993324279785,336.83312263699634,16.34066705964439,14.25999994277954,83.80207841179501
Cebalrai,bet Oph,0,265.86813295741786,4.567303668469166,-41.793,159.43,39.2284,2.75,1.1800000667572021,265.33672986859557,27.939722994172172,13.3,85.43269633153083
Celaeno,16 Tau,0,56.20089556751999,24.28946759207,19.849,-44.966,7.3852,5.460000038146973,-0.039999961853027344,59.435033282821976,4.3652359398591285,16.552000045776367,65.71053240793
Dabih,bet01 Cap,0,305.25277749238,-14.78140760208,44.133,0.36,8.3966,3.0799999237060547,0.7899999618530273,304.04736756969413,4.588632210819059,13.695999908447266,75.21859239792
Diphda,bet Cet,0,10.897378736003901,-17.98660631592891,232.55,31.99,33.86,2.009999990463257,1.0099999904632568,2.5835108584738715,-20.783541523937544,12.411999988555909,72.01339368407109
Dschubba,del Sco,0,240.08335534565887,-22.621706426005783,-10.21,-35.41,6.64,2.319999933242798,-0.11999988555908203,242.5712301409967,-1.9860607300526452,12.783999919891357,67.37829357399421
Electra,17 Tau,0,56.218904540787506,24.11333785002,20.542,-46.081,8.3457,3.700000047683716,-0.1100001335144043,59.41191266601975,4.189850888937697,14.440000057220459,65.88666214998
Eltanin,gam Dra,0,269.1515411786243,51.48889561763423,-8.48,-22.79,21.14,2.2300000190734863,1.5299999713897705,267.9687194448918,74.92219247351562,12.676000022888184,38.51110438236577
Hadar,bet Cen,0,210.95585562281522,-60.373035161541594,-33.27,-23.16,8.32,0.5799999833106995,0.0,233.79224208011775,-44.13766808891848,10.69599997997284,29.626964838458406
Homam,42 Peg,0,340.36550299,10.831363310277778,77.22,-11.38,15.96,3.4100000858306885,-0.08000016212463379,346.1516108119368,17.679464202301695,14.092000102996826,79.16863668972222
Izar,eps Boo,0,221.24673982578958,27.074222319675556,-50.818,21.024,13.8267,2.450000047683716,1.1599998474121094,208.10632506527668,40.624875393053784,12.940000057220459,62.925777680324444
Kitalpha,alf Equ,0,318.95598819687746,5.247891952405833,49.747,-89.846,17.1985,3.933000087738037,0.5130000114440918,323.1172545589099,20.12188245961978,14.719600105285643,84.75210804759416
Kornephoros,bet Her,0,247.5550013403688,21.489610745563056,-98.822,-14.869,22.0023,2.7699999809265137,0.9300000667572021,241.09128715948788,42.702392810808995,13.323999977111816,68.51038925443694
Lesath,ups Sco,0,262.6909880116666,-37.295813475277775,-2.37,-30.09,5.66,2.6500000953674316,-0.1700000762939453,264.0126819131147,-14.0083207751344,13.180000114440919,52.704186524722225
Matar,eta Peg,0,340.75053685395,30.221214713719995,19.957,-18.971,16.6308,2.950000047683716,0.8599998950958252,355.7131813363636,35.10816289652858,13.540000057220459,59.778785286280005
Menkent,tet Cen,0,211.670614682339,-36.369954742511496,-520.53,-518.06,55.45,2.049999952316284,0.9900000095367432,222.3085211735802,-22.079909139548857,12.459999942779541,53.630045257488504
Mesarthim,gam Ari,0,28.382561614839574,19.293855274747905,79.2,-97.63,19.88,0.0,0.0,33.184589140498964,7.162396518702706,10.0,70.7061447252521
Mothallah,alf Tri,0,28.2704392446475,29.578818669729724,12.341,-233.04,51.331,3.4200000762939453,0.48000001907348633,36.860884707938375,16.800496780471576,14.104000091552734,60.42118133027027
Muliphein,gam CMa,0,105.93955612216459,-15.633287003608888,0.931,-11.435,7.5819,4.119999885559082,-0.11999988555908203,109.60786957051664,-37.993798671775394,14.943999862670898,74.36671299639112
Naos,zet Pup,0,120.89603140977576,-40.003147798268934,-29.71,16.68,3.01,2.25,-0.26999998092651367,138.55075226491732,-58.347741080881015,12.7,49.996852201731066
Nashira,gam Cap,0,325.0226892543413,-16.66237119824361,200.193,-9.578,19.1037,3.6700000762939453,0.309999942779541,321.79072490730584,-2.557335400134565,14.404000091552735,73.3376288017564
Nekkar,bet Boo,0,225.48650960185543,40.39056857046112,-40.708,-30.168,13.878,3.5199999809265137,0.9499998092651367,204.25061352457615,54.150995538513584,14.223999977111816,49.60943142953888
Nunki,sig Sgr,0,283.81636040649323,-26.29672411476388,15.14,-53.43,14.32,2.066999912261963,-0.14399993419647217,282.38532993772026,-3.4495307718208097,12.480399894714356,63.703275885236124
Pherkad,gam UMi,0,230.18209804850082,71.83402545491221,-15.908,17.146,6.5959,3.002000093460083,0.06499981880187988,141.59815540063354,75.24111639256739,13.6024001121521,18.165974545087792
Proxima Centauri,NAME Proxima Centauri,0,217.42894222160578,-62.67949018907555,-3781.741,769.465,768.0665,11.130000114440918,1.8199996948242188,239.11463834348584,-44.76332575213489,23.3560001373291,27.32050981092445
Rastaban,bet Dra,0,262.60817373291667,52.30138870861111,-15.89,12.28,8.58,2.809999942779541,0.9800000190734863,251.9664160037365,75.277794671006,13.371999931335449,37.69861129138889
Ruchbah,del Cas,0,21.453964462083334,60.23528402972222,296.57,-49.22,32.81,2.680000066757202,0.12999987602233887,47.929973374738054,46.40348421745868,13.216000080108643,29.764715970277777
Sabik,eta Oph,0,257.5945287106208,-15.724906641710527,40.13,99.17,36.91,2.4200000762939453,0.04999995231628418,257.96958201944926,7.1977903981996505,12.904000091552735,74.27509335828947
Sadachbia,gam Aqr,0,335.41404820054,-1.38734919411,134.223,11.219,25.8551,3.8340001106262207,-0.043000221252441406,336.7140147246308,8.235151642372486,14.600800132751464,88.61265080589
Sadalbari,mu. Peg,0,342.50080447836956,24.601581283481668,145.24,-42.396,28.934,3.4800000190734863,0.940000057220459,354.38590135240497,29.386878604889002,14.176000022888182,65.39841871651834
Sadalmelik,alf Aqr,0,331.4459814409479,-0.3198509554241667,18.59,-10.45,4.9451,2.940000057220459,0.9600000381469727,333.3524641223206,10.661571000743999,13.52800006866455,89.68014904457583
Sadalsuud,bet Aqr,0,322.88971698347876,-5.5711748280636115,19.214,-8.163,5.9728,2.890000104904175,0.8199999332427979,323.3950673233703,8.615008051404825,13.468000125885009,84.42882517193638
Sadr,gam Cyg,0,305.55709098208337,40.25667915638889,2.39,-0.91,1.78,2.2300000190734863,0.6700000762939453,324.8414942227212,57.12440269879953,12.676000022888184,49.74332084361111
Sargas,tet Sco,0,264.3297077207907,-42.99782799333082,5.54,-3.12,10.86,1.850000023841858,0.43999993801116943,265.5994117159445,-19.645127806640577,12.22000002861023,47.00217200666918
Schedar,alf Cas,0,10.126846007691249,56.537329217042775,49.126,-31.595,14.091,2.2300000190734863,1.1700000762939453,37.78367771123028,46.62216891419749,12.676000022888184,33.462670782957225
Seginus,gam Boo,0,218.0194653313254,38.3082480800211,-114.344,151.788,37.9125,3.0199999809265137,0.19000005722045898,197.66343494664486,49.55156061191891,13.623999977111817,51.6917519199789
Sheliak,bet Lyr,0,282.51997976764824,33.36266676977778,2.045,-3.685,3.5982,3.4200000762939453,0.0,288.88369983619793,55.98413871749312,14.104000091552734,56.63733323022222
Skat,del Aqr,0,343.66252607413,-15.820819565200004,-34.152,-26.359,23.1451,3.2799999713897705,0.04999995231628418,338.87344184745444,-8.191332411284598,13.935999965667724,74.1791804348
Suhail,lam Vel,0,136.99899113791412,-43.432590908860746,-24.01,13.52,5.99,2.2100000381469727,1.6499998569488525,161.18762346400044,-55.87083004521447,12.652000045776367,46.567409091139254
Sulafat,gam Lyr,0,284.73592734438125,32.68955574065722,-2.98,1.689,4.9656,3.25,-0.04999995231628418,291.92235034390814,55.01295148848771,13.9,57.31044425934278
Tarazed,gam Aql,0,296.5649123092774,10.6132587226325,16.233,-1.354,5.5899,2.7200000286102295,1.5099999904632568,300.9389369298184,31.243566914979542,13.264000034332275,79.3867412773675
Taygeta,q Tau,0,56.302083304839165,24.46727376214722,16.292,-47.206,9.5444,4.300000190734863,-0.1100001335144043,59.56470678595887,4.518190840413363,15.160000228881835,65.53272623785278
Unukalhai,alf Ser,0,236.0669754565879,6.425630220244722,133.922,45.55,43.945,2.630000114440918,1.1699998378753662,232.0751516509863,25.508003423323682,13.156000137329102,83.57436977975527
Wasat,del Gem,0,110.03072735754377,21.98230404962861,-27.722,-14.702,53.7692,3.5299999713897705,0.3399999141693115,108.51929025067794,-0.1784014418333769,14.235999965667723,68.01769595037139
Yildun,del UMi,0,263.0541592214034,86.58645960557529,10.025,54.053,17.8802,4.335999965667725,0.031000137329101562,91.20316909794226,69.94519793312234,15.20319995880127,3.4135403944247145
Zavijava,bet Vir,0,177.67382714942332,1.7647226497586115,740.746,-270.927,90.8945,3.5999999046325684,0.5500001907348633,177.16415532371013,0.6942574528420868,14.319999885559081,88.23527735024139
Zubenelgenubi,alf02 Lib,0,222.7196378915803,-16.041776519834446,-105.68,-68.4,43.03,2.75,0.15000009536743164,225.0826637550132,0.3330651437991923,13.3,73.95822348016556
Zubeneschamali,bet Lib,0,229.25172424914246,-9.382914410334685,-98.1,-19.65,17.62,2.619999885559082,-0.1099998950958252,229.37168589191447,8.49593123998634,13.1439998626709,80.61708558966532
Acamar,tet Eri,0,44.56531355666667,-40.30468122722222,-52.89,21.98,20.23,0.0,0.0,23.272325178897987,-53.740173935591635,10.0,49.69531877277778
Acrux,alf Cru,0,186.64956340120452,-63.099092857925115,-35.83,-14.86,10.13,0.0,0.0,221.86990664378303,-52.87887047639797,10.0,26.900907142074885
Acubens,alf Cnc,0,134.62168421127,11.8576804028,42.181,-31.16,18.3304,4.249000072479248,0.13899993896484375,133.64157754599108,-5.080471528902265,15.098800086975096,78.1423195972
Adhafera,zet Leo,0,154.17256318434792,23.417316988991107,21.161,-8.263,14.0377,3.4100000858306885,0.309999942779541,147.56547324143907,11.865082939393451,14.092000102996826,66.5826830110089
Albireo,bet01 Cyg,0,292.68031501400833,27.959673631221666,4.915,-11.127,8.9816,3.0799999237060547,1.130000114440918,301.25160283088496,48.96769740765131,13.695999908447266,62.04032636877834
Alderamin,alf Cep,0,319.6448846972256,62.5855744637194,150.55,49.09,66.5,2.4600000381469727,0.2200000286102295,12.778080729149858,68.91369596989075,12.952000045776368,27.414425536280604
Algieba,gam Leo,0,154.99312733272745,19.84148521911754,304.3,-154.28,25.07,0.0,0.0,149.61502839656112,8.81486006837271,10.0,70.15851478088246
Algorab,del Crv,0,187.46606318416664,-16.515431261666667,-209.276,-139.184,38.06,2.940000057220459,-0.04999995231628418,193.45173097159616,-12.19629777561209,13.52800006866455,73.48456873833334
Alhena,gam Gem,0,99.42796042942895,16.399280426663772,13.81,-54.96,29.84,1.9199999570846558,0.0,99.10462114844613,-6.742521525037713,12.303999948501588,73.60071957333622
Almach,gam01 And,0,30.97480120653972,42.32972842352701,42.32,-49.3,8.3,2.0999999046325684,1.2000000476837158,44.225404485175666,27.80624018669169,12.519999885559082,47.67027157647299
Alnair,alf Gru,0,332.05826969609114,-46.96097438191952,126.69,-147.47,32.29,1.7100000381469727,-0.12999999523162842,315.90698434158827,-32.9132561051702,12.052000045776367,43.03902561808048
Alnilam,eps Ori,0,84.05338894077023,-1.2019191358333312,1.44,-0.78,1.65,1.690000057220459,-0.18000006675720215,83.46364658002223,-24.506372735867334,12.02800006866455,88.79808086416666
Alnitak,zet Ori,0,85.18969442793068,-1.9425735859722049,3.19,2.03,4.43,1.7699999809265137,-0.21000003814697266,84.68132142430235,-25.293085546175345,12.123999977111817,88.0574264140278
Alphard,alf Hya,0,141.89684459585948,-8.658599531745583,-15.23,34.37,18.09,1.9700000286102295,1.4500000476837158,147.27920711907115,-22.382385132204163,12.364000034332275,81.34140046825442
Alphecca,alf CrB,0,233.67195203403162,26.714685000024716,118.927,-87.711,42.2408,2.240000009536743,-0.019999980926513672,222.2958000381695,44.32352059053323,12.688000011444093,63.285314999975284
Aludra,eta CMa,0,111.02375950100142,-29.303105508471724,-4.14,5.81,1.64,2.450000047683716,-0.08000016212463379,119.53647595980624,-50.60874537110675,12.940000057220459,60.696894491528276
Alula Australis,ksi UMa,0,169.54554950000002,31.529288899999997,-453.7,-591.4,0.0,3.7899999618530273,0.5900001525878906,157.34198620696228,24.724797759607053,14.547999954223632,58.4707111
Alula Borealis,nu. UMa,0,169.61973835928958,33.09430607022111,-26.139,27.892,7.9823,3.490000009536743,1.3999998569488525,156.65363864829325,26.162461937500954,14.188000011444093,56.90569392977889
Ankaa,alf Phe,0,6.5710475153919266,-42.305987194396046,233.05,-356.3,38.5,2.380000114440918,1.0899999141693115,345.49382092349765,-40.63307684848142,12.8560001373291,47.694012805603954
Arneb,alf Lep,0,83.18256716166667,-17.82228927222222,3.56,1.18,1.47,2.569999933242798,0.20000004768371582,81.38058014265053,-41.05780187871369,13.083999919891358,72.17771072777778
Aspidiske,iot Car,0,139.27252857166667,-59.275232029166666,-18.86,11.98,4.26,2.259999990463257,0.18000006675720215,185.3262721282801,-67.11634769761903,12.711999988555908,30.724767970833334
Atria,alf TrA,0,252.1662295073803,-69.02771184691984,17.99,-31.58,8.35,1.8799999952316284,1.4499999284744263,260.895869493678,-46.15136633595719,12.255999994277953,20.972288153080157
Avior,eps Car,0,125.62848024272952,-59.509484191917416,-25.52,22.06,5.39,1.8600000143051147,1.2700001001358032,173.12914498856125,-72.67989960789097,12.232000017166138,30.490515808082584
Chara,bet CVn,0,188.43560104856124,41.35747815357195,-704.702,292.155,118.0266,4.25,0.6100001335144043,167.7058432922356,40.54391923868845,15.1,48.64252184642805
Chertan,tet Leo,0,168.56002362722833,15.429571086424442,-60.538,-78.675,20.316,3.3499999046325684,-0.019999980926513672,163.42302637299449,9.674312647478178,14.01999988555908,74.57042891357555
Copernicus,rho01 Cnc,0,133.14921293501794,28.330820831797222,-485.681,-233.517,79.4482,0.0,0.0,127.73245062740045,10.367095944360267,10.0,61.669179168202774
Cor Caroli,alf02 CVn,0,194.00693995375286,38.31837643625333,-233.776,55.035,32.7227,2.880000114440918,-0.12000012397766113,174.56672846286483,40.12103587542069,13.456000137329102,51.68162356374667
Cursa,bet Eri,0,76.96239535462041,-5.086496983969999,-88.481,-70.497,36.2456,2.7899999618530273,0.13000011444091797,75.27584551736214,-27.861810204813427,13.347999954223633,84.91350301603
Elnath,bet Tau,0,81.57297133176498,28.607451724998228,22.76,-173.58,24.36,1.649999976158142,-0.12999999523162842,82.57493664183492,5.385118858693827,11.97999997138977,61.39254827500177
Enif,eps Peg,0,326.04648391416663,9.875008653333333,26.92,0.44,4.73,2.390000104904175,1.5199999809265137,331.88490454857975,22.099891508918677,12.86800012588501,80.12499134666666
Furud,zet CMa,0,95.07830016583333,-30.063366733888888,7.32,4.03,9.0,2.990000009536743,-0.1700000762939453,97.377588469004,-53.37266902958413,13.588000011444091,59.936633266111116
Gacrux,gam Cru,0,187.79149837560794,-57.11321345705891,28.23,-265.08,36.83,1.6399999856948853,1.590000033378601,216.73963333405973,-47.83120542247421,11.967999982833863,32.88678654294109
Gomeisa,bet CMi,0,111.78767390541668,8.2893157625,-51.76,-38.29,20.17,2.890000104904175,-0.09000015258789062,112.1917065524226,-13.487208372565815,13.468000125885009,81.7106842375
Hamal,alf Ari,0,31.79335709957655,23.46241755020095,188.55,-148.08,49.56,2.009999990463257,1.1600000858306885,37.66248005825714,9.96511745446994,12.411999988555909,66.53758244979905
Kaus Australis,eps Sgr,0,276.0429933505963,-34.38461648586744,-39.42,-124.2,22.76,1.809999942779541,0.010000109672546387,275.0785404600353,-11.051808578549613,12.17199993133545,55.61538351413256
Kaus Borealis,lam Sgr,0,276.99266966041665,-25.421698496944444,-46.152,-185.067,42.9198,2.809999942779541,1.0399999618530273,276.3170916336238,-2.1356284397582734,13.371999931335449,64.57830150305556
Kaus Media,del Sgr,0,275.24851205687213,-29.828102262591386,33.212,-27.361,7.8468,2.6679999828338623,1.4009997844696045,274.5808759058789,-6.472244146130358,13.201599979400635,60.171897737408614
Kochab,bet UMi,0,222.67635749796767,74.15550393675127,-32.61,11.42,24.91,2.0799999237060547,1.4700000286102295,133.3195018955336,72.9876047446331,12.495999908447265,15.844496063248727
Maia,20 Tau,0,56.45670064515208,24.36774376828833,19.516,-45.527,7.6713,3.869999885559082,-0.06999993324279785,59.68037827803967,4.390018038660692,14.6439998626709,65.63225623171166
Mebsuta,eps Gem,0,100.98302979662667,25.131127192367778,-4.853,-11.78,3.7477,2.9800000190734863,1.4099998474121094,99.93879458758865,2.069982660123342,13.576000022888184,64.86887280763221
Meissa,lam Ori,0,83.78449002103218,9.934155874166667,-0.34,-2.94,2.97,3.6600000858306885,-0.18000006675720215,83.70682992884393,-13.369445858328003,14.392000102996825,80.06584412583334
Menkalinan,bet Aur,0,89.88217886833333,44.94743257194444,-56.44,-0.95,40.21,1.899999976158142,0.029999971389770508,89.91037014209523,21.50818978944291,12.27999997138977,45.05256742805556
Merope,23 Tau,0,56.58160786306708,23.948358938116662,13.075,-48.404,7.067,4.179999828338623,-0.059999942779541016,59.699330015464795,3.9558349593664817,15.015999794006348,66.05164106188334
Miaplacidus,bet Car,0,138.29990608310192,-69.71720759721548,-156.47,108.95,28.82,1.690000057220459,0.0,211.96883354329862,-72.23600961222917,12.02800006866455,20.282792402784523
Mimosa,bet Cru,0,191.9302865619529,-59.68877199622606,-42.97,-16.18,11.71,1.25,-0.23000001907348633,221.64603356305787,-48.63878475212985,11.5,30.31122800377394
Mintaka,del Ori,0,83.00166705557675,-0.29909510708333326,0.64,-0.69,4.71,2.4100000858306885,-0.3900001049041748,82.36212653170702,-23.553015179882095,12.892000102996827,89.70090489291667
Mirfak,alf Per,0,51.08070871833333,49.86117929305556,23.75,-26.23,6.44,1.7899999618530273,0.48000001907348633,62.08093255934503,30.12548054055563,12.147999954223632,40.13882070694444
Mirzam,bet CMa,0,95.67493896958332,-17.955918708888888,-3.23,-0.78,6.62,1.9700000286102295,-0.24000000953674316,97.18794463412914,-41.25370369412813,12.364000034332275,72.04408129111111
Muscida,omi UMa,0,127.56612565266667,60.718168223941106,-133.644,-107.664,17.9335,3.4200000762939453,0.8499999046325684,112.99581893977434,40.24341110762513,14.104000091552734,29.281831776058894
Nihal,bet Lep,0,82.06134536679916,-20.759443885748333,-5.748,-83.65,20.8697,2.8399999141693115,0.820000171661377,79.67240450429483,-43.91452961231986,13.407999897003174,69.24055611425166
Peacock,alf Pav,0,306.4119043651986,-56.73508972631689,6.9,-86.02,18.24,1.9179999828338623,-0.12699997425079346,293.81747275427927,-36.26763581368511,12.301599979400635,33.26491027368311
Phact,alf Col,0,84.91225429958334,-34.07410971972223,1.685,-24.345,11.4008,2.6500000953674316,-0.12000012397766113,82.16923842108095,-57.375169912510415,13.180000114440919,55.92589028027777
Phecda,gam UMa,0,178.45769715249997,53.69475972916666,107.68,11.01,39.21,2.440000057220459,0.009999990463256836,150.47698633821068,47.14153220363237,12.92800006866455,36.30524027083334
Porrima,gam Vir,0,190.41511762006294,-1.4494039524575002,-605.176,85.701,83.1935,2.740000009536743,0.3599998950958252,190.14141532209402,2.7902398915126523,13.288000011444092,88.5505960475425
Propus,eta Gem,0,93.71935536055373,22.506787327170834,-59.53,-7.766,4.7312,3.2799999713897705,1.6099998950958252,93.43612684922536,-0.8881395519123031,13.935999965667724,67.49321267282917
Rasalhague,alf Oph,0,263.73362272030505,12.560037391671425,108.07,-221.57,67.13,2.069999933242798,0.15000009536743164,262.4486201275889,35.83519927601954,12.483999919891357,77.43996260832857
Rukbat,alf Sgr,0,290.97156416063837,-40.615937202693054,31.79,-120.087,18.1088,3.943000078201294,-0.10199999809265137,286.63577739297284,-18.3801617025053,14.731600093841553,49.384062797306946
Saiph,kap Ori,0,86.93912016833333,-9.66960491861111,1.46,-1.28,5.04,2.059999942779541,-0.1799999475479126,86.39862768830422,-33.07062716942839,12.47199993133545,80.33039508138889
Shaula,lam Sco,0,263.40216718438023,-37.10382355111976,-8.53,-30.8,5.71,1.6299999952316284,-0.13999998569488525,264.58571226129106,-13.788466128899358,11.955999994277954,52.89617644888024
Sheratan,bet Ari,0,28.66004578884514,20.808031471916408,98.74,-110.41,55.6,2.6500000953674316,0.12999987602233887,33.97001093826417,8.487253481571301,13.180000114440919,69.19196852808359
Talitha,iot UMa,0,134.8018900723819,48.04182614451662,-441.29,-215.32,68.92,3.140000104904175,0.18999981880187988,122.79981578090515,29.575282911280404,13.76800012588501,41.95817385548338
Tania Australis,mu. UMa,0,155.5821986521946,41.499538262575555,-73.749,28.259,17.7987,3.049999952316284,1.5899999141693115,141.23487565617756,28.998084981265585,13.65999994277954,48.500461737424445
Tania Borealis,lam UMa,0,154.27408023573,42.91441380519,-152.974,-49.462,14.4594,3.450000047683716,0.029999971389770508,139.54978289978862,29.8853291482761,14.140000057220458,47.08558619481
Tonatiuh,HD 104985,0,181.31298828928,76.90573409254,147.183,-92.464,9.928,0.0,0.0,120.62031123373356,63.59736653633427,10.0,13.094265907459999
Vindemiatrix,eps Vir,0,195.5441542302233,10.959148721740554,-273.793,19.804,30.211,2.7899999618530273,0.9200000762939453,189.9402514750646,16.204963377266694,13.347999954223633,79.04085127825945
Wazn,bet Col,0,87.73996785288541,-35.76830962121,54.452,404.6,36.9038,3.119999885559082,1.1600003242492676,86.41948067454794,-59.17950242507637,13.743999862670899,54.23169037879
Wezen,del CMa,0,107.09785021416667,-26.39319957888889,-3.12,3.31,2.03,1.840000033378601,0.6799999475479126,113.39601830497328,-48.45319147015239,12.208000040054321,63.60680042111111
Zaurak,gam Eri,0,59.50735758877376,-13.508514805984444,62.227,-112.006,17.0016,2.940000057220459,1.5999999046325684,53.867508673576715,-33.2021244249401,13.52800006866455,76.49148519401555
Zosma,del Leo,0,168.52708926588556,20.523718139047475,143.42,-129.88,55.82,2.5299999713897705,0.15000009536743164,161.31658930124584,14.333587550200729,13.035999965667724,69.47628186095253
Achernar,alf Eri,0,24.428522833333336,-57.236752805555554,87.0,-38.24,23.39,0.46000000834465027,-0.1599999964237213,345.31129465294936,-59.37814671284548,10.55200001001358,32.763247194444446
Alcor,g UMa,0,201.30640763875,54.98795966138889,120.21,-16.04,39.91,4.010000228881836,0.1699995994567871,165.87432863755765,56.55062618839864,14.812000274658203,35.01204033861111
Alcyone,eta Tau,0,56.871152303749994,24.105135651944444,19.34,-43.67,8.09,2.869999885559082,-0.08999991416931152,59.992393877241184,4.050958945745579,13.443999862670898,65.89486434805556
Aldebaran,alf Tau,0,68.9801627900154,16.5093023507718,63.45,-188.94,48.94,0.8600000143051147,1.540000081062317,69.78918854498411,-5.467316167038259,11.032000017166137,73.4906976492282
Algenib,gam Peg,0,3.3089681209050004,15.18359842959389,0.492,-10.73,6.9474,2.8399999141693115,-0.23000001907348633,9.156040857687476,12.59993404772421,13.407999897003174,74.81640157040611
Algol,bet Per,0,47.04221855625,40.95564667027778,2.99,-1.66,36.27,2.119999885559082,-0.04999995231628418,56.167582108105414,22.428537714427534,12.543999862670898,49.04435332972222
Alioth,eps UMa,0,193.5072899675,55.95982295694445,111.91,-8.24,39.51,1.7699999809265137,-0.019999980926513672,158.93348907697262,54.31879818171669,12.123999977111817,34.04017704305555
Aljanah,eps Cyg,0,311.55280115351087,33.97032834364584,365.954,308.787,43.1769,2.4800000190734863,1.0399999618530273,327.74560177819944,49.42233100632843,12.976000022888183,56.02967165635416
Alkaid,eta UMa,0,206.88515734206297,49.31326672942533,-121.17,-14.91,31.38,1.8600000143051147,-0.19000005722045898,176.93318724620332,54.38798159896544,12.232000017166138,40.68673327057467
Alpheratz,alf And,0,2.0969161856756404,29.090431118059698,137.46,-163.44,33.62,2.059999942779541,-0.1099998950958252,14.308468164832718,25.680445042230406,12.47199993133545,60.9095688819403
Altair,alf Aql,0,297.69582729638694,8.868321196436963,536.23,385.29,194.95,0.7599999904632568,0.2200000286102295,301.77641233638246,29.303452008719436,10.911999988555909,81.13167880356303
Antares,alf Sco,0,247.3519154198264,-26.432002611950832,-12.11,-23.3,5.89,0.9100000262260437,1.8399999737739563,249.76229298750803,-4.569955660498497,11.092000031471253,63.567997388049164
Arcturus,alf Boo,0,213.915300294925,19.1824091615312,-1093.39,-2000.06,88.83,-0.05000000074505806,1.2299999482929707,204.23362147192208,30.736228308366893,9.93999999910593,70.8175908384688
Bellatrix,gam Ori,0,81.28276355652378,6.3497032644440665,-8.11,-12.88,12.92,1.6399999856948853,-0.2200000286102295,80.9464651867146,-16.816030914380903,11.967999982833863,83.65029673555594
Betelgeuse,alf Ori,0,88.79293899077537,7.407063995272694,27.54,11.3,6.55,0.41999998688697815,1.8499999940395355,88.75459927252975,-16.026997338833343,10.503999984264373,82.5929360047273
Canopus,alf Car,0,95.98795782918306,-52.69566138386201,19.93,23.24,10.55,-0.7400000095367432,0.15000003576278687,104.96051819579371,-75.82387206910721,9.111999988555908,37.30433861613799
Capella,alf Aur,0,79.17232794433404,45.99799146983673,75.25,-426.89,76.2,0.07999999821186066,0.7999999970197678,81.85791896061392,22.864277319290828,10.095999997854232,44.00200853016327
Caph,bet Cas,0,2.2945215777878776,59.14978109800713,523.5,-179.77,59.58,2.2699999809265137,0.3399999141693115,35.11663712877614,51.214981032451135,12.723999977111816,30.850218901992868
Castor,alf Gem,0,113.64947163976585,31.88828221646326,-191.45,-145.19,64.12,1.5800000429153442,0.039999961853027344,110.24020636588183,10.095764231320908,11.896000051498413,58.11171778353674
Deneb,alf Cyg,0,310.35797975307673,45.280338806527574,2.01,1.85,2.31,1.25,0.09000003337860107,335.32920587906733,59.9061446254254,11.5,44.719661193472426
Denebola,bet Leo,0,177.26490975591017,14.572058064829658,-497.68,-114.67,90.91,2.130000114440918,0.08999991416931152,171.6175335577897,12.266876380010201,12.556000137329102,75.42794193517034
Dubhe,alf UMa,0,165.9319646738126,61.751034687818226,-134.11,-34.7,26.54,1.7899999618530273,1.0699999332427979,135.19739520810248,49.680309319601356,12.147999954223632,28.248965312181774
Megrez,del UMa,0,183.85649936126705,57.03261697773611,103.947,8.141,40.3279,3.319999933242798,0.09000015258789062,151.06482841480548,51.65671187725894,13.983999919891357,32.96738302226389
Menkar,alf Cet,0,45.56988780332224,4.089738771805157,-10.41,-76.85,13.09,2.5299999713897705,1.6400001049041748,44.3201445193973,-12.585567812681848,13.035999965667724,85.91026122819484
Merak,bet UMa,0,165.46033229797294,56.382433649496384,79.959,32.365,38.6031,2.369999885559082,-0.019999980926513672,139.4346734988236,45.133008746336074,12.843999862670898,33.617566350503616
Mira,omi Cet,0,34.83663375759996,-2.9776376730729166,9.33,-237.36,10.91,6.53000020980835,1.0999999046325684,31.521969122328986,-15.936893049981302,17.83600025177002,87.02236232692708
Mirach,bet And,0,17.43301617293042,35.62055765052624,175.9,-112.2,16.52,2.049999952316284,1.5699999332427979,30.405227972570646,25.94336727265625,12.459999942779541,54.37944234947376
Pleione,28 Tau,0,57.29673582413,24.13671019778,19.496,-47.65,7.2414,5.090000152587891,-0.07999992370605469,60.37938473967484,3.997615877390825,16.108000183105467,65.86328980222
Polaris,alf UMi,0,37.954560670189856,89.26410896994187,44.48,-11.85,7.54,2.0199999809265137,0.5999999046325684,88.56759374603628,66.10147354075342,12.423999977111816,0.7358910300581272
Procyon,alf CMi,0,114.82549790798149,5.224987557059477,-714.59,-1036.8,284.56,0.3700000047683716,0.42000001668930054,115.78553550846543,-16.019609210655265,10.444000005722046,84.77501244294052
Rasalgethi,alf Her,0,258.66190909203993,14.39034061013818,-7.32,36.07,9.07,0.0,0.0,256.15195798480283,37.28614840188983,10.0,75.60965938986182
Regulus,alf Leo,0,152.09296243828146,11.967208776100023,-248.73,5.59,41.13,1.399999976158142,-0.15999996662139893,149.82913412581973,0.4648447043821854,11.67999997138977,78.03279122389998
Rigel,bet Ori,0,78.63446706693006,-8.201638364722209,1.31,0.5,3.78,0.12999999523162842,-0.0299999937415123,76.82958921219854,-31.12275600794348,10.155999994277954,81.79836163527779
Scheat,bet Peg,0,345.9435727452067,28.082787124606668,187.65,136.93,16.64,2.4200000762939453,1.6700000762939453,359.3741749439338,31.140514380813542,12.904000091552735,61.91721287539333
Sirius,alf CMa,0,101.28715533333335,-16.71611586111111,-546.01,-1223.07,379.21,-1.4600000381469727,0.0,104.08166215698276,-39.60523721777649,8.247999954223634,73.2838841388889
Spica,alf Vir,0,201.2982473615632,-11.161319485111932,-42.35,-30.67,13.06,0.9700000286102295,-0.23000001907348633,203.84135741792912,-2.0544933848567775,11.164000034332275,78.83868051488807
Thuban,alf Dra,0,211.09732332021125,64.3758696175675,-56.351,12.329,12.5156,3.680000066757202,-0.039999961853027344,157.45619588666017,66.36212491058676,14.416000080108642,25.624130382432497
Vega,alf Lyr,0,279.234734787025,38.783688956244,200.94,286.23,130.23,0.029999999329447746,0.0,285.3163820516666,61.732853410849984,10.035999999195337,51.216311043756
Ain,eps Tau,0,67.15416772966458,19.18043420581389,107.526,-36.2,22.3654,3.5299999713897705,1.0099999904632568,68.46504339439632,-2.567147449338524,14.235999965667723,70.8195657941861
Cervantes,mu. Ara,0,266.03626308953,-51.8340532231,-15.034,-190.901,64.0853,5.150000095367432,0.6999998092651367,267.215784174662,-28.43307552186949,16.18000011444092,38.1659467769
Chalawan,47 UMa,0,164.86655313083833,40.430255714645554,-316.85,55.18,72.007,0.0,0.0,149.06985389603554,31.061610597578206,10.0,49.569744285354446
Edasich,iot Dra,0,231.23239085120377,58.966065864404726,-8.183,17.296,32.5239,3.2899999618530273,1.1599998474121094,184.94974182691206,71.09354268004591,13.947999954223633,31.033934135595274
Errai,gam Cep,0,354.83712672241,77.63236410594,-64.86,171.159,72.5167,0.0,0.0,60.09312527664258,64.66980282603079,10.0,12.367635894060001
Fafnir,42 Dra,0,276.49640400057,65.56348092883,105.816,-26.846,11.056,4.822999954223633,1.1820001602172852,342.26682027841565,87.18337959192176,15.787599945068358,24.436519071169997
Fomalhaut,alf PsA,0,344.4126927211701,-29.622237033389442,328.95,-164.67,129.81,1.159999966621399,0.09000003337860107,333.8602585918875,-21.13562032434998,11.391999959945679,60.37776296661056
Helvetios,51 Peg,0,344.36658535524,20.768832511140005,207.328,61.164,64.4048,5.460000038146973,0.6999998092651367,354.2840962568304,25.186472073737594,16.552000045776367,69.23116748886
Intercrus,41 Lyn,0,142.16661946871,45.60148086899,-7.184,-129.318,11.8163,5.39300012588501,0.995999813079834,129.1831047165598,29.001387025121467,16.471600151062013,44.39851913101
Libertas,ksi Aql,0,298.5620063246,8.461454288359999,101.694,-81.141,17.5183,4.706999778747559,1.0520000457763672,302.6330387915725,28.722424886773616,15.648399734497069,81.53854571164
Musica,18 Del,0,314.60805637291,10.839286352639999,-49.921,-34.509,13.3021,5.50600004196167,0.9260001182556152,320.5912018035485,26.78685291044924,16.607200050354002,79.16071364736
Ogma,HD 149026,0,247.62341073816998,38.34730805024,-77.963,52.682,13.1203,8.140000343322754,0.6099996566772461,234.50035485480333,59.05959732482986,19.768000411987302,51.65269194976
Pollux,bet Gem,0,116.32895777437875,28.02619889009357,-626.55,-45.8,96.54,1.1399999856948853,1.0000001192092896,113.21564107241073,6.684198622975271,11.367999982833862,61.97380110990643
Ran,eps Eri,0,53.23268537982792,-9.458260970518056,-974.758,20.876,310.5773,3.7300000190734863,0.880000114440918,48.16776740854889,-27.71575694180515,14.476000022888183,80.54173902948195
Titawin,ups And,0,24.199339768294585,41.40545871334139,-171.892,-381.815,74.194,4.099999904632568,0.5399999618530273,38.55019131656362,28.98032383559721,14.919999885559083,48.59454128665861
Veritate,14 And,0,352.82255521802,39.23619852879,286.898,-84.043,13.1681,0.0,0.0,11.96209417735341,38.22994550052123,10.0,50.76380147121
Pistol Star,[FMM95] 3,0,266.5635,-28.834327777777776,0.0,0.0,0.0,0.0,0.0,266.9763984680268,-5.431109819989764,10.0,61.16567222222223
Bodu,95 Her A,0,270.3767028390399,21.59578115066,9.2,38.438,7.5526,4.829999923706055,0.15000009536743164,270.4956423369648,45.034412474421806,15.795999908447264,68.40421884934
Unurgunite,sig CMa,0,105.42978350186792,-27.934830340443888,-5.714,4.89,2.5085,3.4700000286102295,1.7299997806549072,111.55607917923464,-50.225830855904,14.164000034332275,62.06516965955611
33 Psc,33 Psc,0,1.3339215498499999,-5.7076199163391665,-11.985,89.314,23.5152,4.610000133514404,1.0399999618530273,358.94567226204,-5.765633503623367,15.532000160217285,84.29238008366083
eps Phe,eps Phe,0,2.3526670558199996,-45.74742390816,120.393,-179.597,22.6081,3.869999885559082,1.0199999809265137,339.6480393788793,-41.95602919951309,14.6439998626709,44.25257609184
6 Cet,6 Cet,0,2.81607516478,-15.467977907889997,-82.828,-269.549,52.9489,4.889999866485596,0.49000024795532227,356.27663374819446,-15.279457840644406,15.867999839782716,74.53202209211
chi Peg,chi Peg,0,3.650684510418749,20.206702882684446,91.831,1.152,9.4052,4.800000190734863,1.5799999237060547,11.598427272983676,17.045840795862798,15.760000228881836,69.79329711731555
7 Cet,7 Cet,0,3.6600704726100006,-18.932863353932504,-26.458,-73.45,7.0797,4.460000038146973,1.6599998474121094,355.53799792485063,-18.766087339023585,15.352000045776368,71.0671366460675
tet And,tet And,0,4.272926513519167,38.68163572933945,-57.551,-14.795,18.8747,4.610000133514404,0.059999942779541016,21.201656885217442,33.386470832988536,15.532000160217285,51.31836427066055
